[
    {
        "id": 1737,
        "unidade": 2,
        "tipo": 21,
        "regiao": 4,
        "nome": "PROF. ALCEU MAYNARD ARAÚJO",
        "endereco": "Rua dos Misiotis, 75 - Jardim Motorama, São José dos Campos - SP, Brasil",
        "lat": "-23.17343102",
        "lng": "-45.81825934",
        "telefone": "39295576",
        "telefone2": "39295394",
        "email": "",
        "codigoCie": "13481"
    },
    {
        "id": 1738,
        "unidade": 2,
        "tipo": 21,
        "regiao": null,
        "nome": "PROF. AMINTAS ROCHA BRITO",
        "endereco": "Rua Aníbal Ferri, 193 - Jardim Castanheiras, São José dos Campos - SP, Brasil",
        "lat": "-23.18493973",
        "lng": "-45.79331249",
        "telefone": "39071375",
        "telefone2": "39072011",
        "email": "",
        "codigoCie": "917597"
    },
    {
        "id": 1739,
        "unidade": 2,
        "tipo": 21,
        "regiao": null,
        "nome": "PROF. ANA CÂNDIDA DE BARROS MOLINA",
        "endereco": "Rua Saigiro Nakamura, 300 - Vila Industrial, São José dos Campos - SP, Brasil",
        "lat": "-23.18050244",
        "lng": "-45.85998069",
        "telefone": "39295014",
        "telefone2": "39027356",
        "email": null,
        "codigoCie": "13572"
    },
    {
        "id": 1740,
        "unidade": 2,
        "tipo": 21,
        "regiao": null,
        "nome": "PROF. ANA HERONDINA SOARES SCHYCHOF",
        "endereco": "Rua Cidade de Washington, 163 - Vista Verde, São José dos Campos - SP, Brasil",
        "lat": "-23.17672223",
        "lng": "-45.82071072",
        "telefone": "39293963",
        "telefone2": "39295522",
        "email": null,
        "codigoCie": "917448"
    },
    {
        "id": 1741,
        "unidade": 2,
        "tipo": 21,
        "regiao": null,
        "nome": "PROF. ARLETE ELOÍZA FERREIRA TEIXEIRA",
        "endereco": "Rua Orlando Silva, 35 - Jardim Nova Detroit, São José dos Campos - SP, Brasil",
        "lat": "-23.16601233",
        "lng": "-45.81139812",
        "telefone": "39295568",
        "telefone2": "39122553",
        "email": null,
        "codigoCie": "905112"
    },
    {
        "id": 1742,
        "unidade": 2,
        "tipo": 21,
        "regiao": null,
        "nome": "ARMANDO D OLIVEIRA COBRA",
        "endereco": "Rua Treze de Maio, 295 - Centro   São Francisco Xavier, São José dos Campos - SP, Brasil",
        "lat": "-22.91147688",
        "lng": "-45.96011629",
        "telefone": "39261154",
        "telefone2": "39261250",
        "email": null,
        "codigoCie": "13730"
    },
    {
        "id": 1743,
        "unidade": 2,
        "tipo": 21,
        "regiao": null,
        "nome": "PROF. AYR PICANÇO BARBOSA DE ALMEIDA",
        "endereco": "Rua Galiléia, 365 - Bosque dos Eucaliptos, São José dos Campos - SP, Brasil",
        "lat": "-23.23922275",
        "lng": "-45.88674975",
        "telefone": "39164222",
        "telefone2": "39361956",
        "email": null,
        "codigoCie": "47958"
    },
    {
        "id": 1744,
        "unidade": 2,
        "tipo": 21,
        "regiao": null,
        "nome": "DEP. BENEDITO MATARAZZO",
        "endereco": "Rua Mindanau, 111 - Jardim Paraíso, São José dos Campos - SP, Brasil",
        "lat": "-23.23524057",
        "lng": "-45.90214510",
        "telefone": "39347767",
        "telefone2": "39331066",
        "email": "",
        "codigoCie": "1557"
    },
    {
        "id": 1745,
        "unidade": 3,
        "tipo": 31,
        "regiao": null,
        "nome": "CENTRO DE ESTUDO DE EDUCAÇÃO DE JOVES E ADULTOS",
        "endereco": "Travessa Claudino Prisco, 343 - Vila Cristina, São José dos Campos - SP, Brasil",
        "lat": "-23.15714140",
        "lng": "-45.89138588",
        "telefone": "39218470",
        "telefone2": "39226807",
        "email": null,
        "codigoCie": "980195"
    },
    {
        "id": 1746,
        "unidade": 2,
        "tipo": 21,
        "regiao": null,
        "nome": "PROF. DIÁCONO HAMILTON BONTORIM DE SOUZA",
        "endereco": "Rua Rio do Peixe, 321 - Altos da Vila Paiva, São José dos Campos - SP, Brasil",
        "lat": "-23.14361992",
        "lng": "-45.92026435",
        "telefone": "39072004",
        "telefone2": "39318415",
        "email": "",
        "codigoCie": "479095"
    },
    {
        "id": 1747,
        "unidade": 2,
        "tipo": 21,
        "regiao": null,
        "nome": "PROF. DINORÁ PEREIRA RAMOS DE BRITO",
        "endereco": "Rua João Rodolfo Castelli, 157 - Putim, São José dos Campos - SP, Brasil",
        "lat": "-23.24435453",
        "lng": "-45.84403657",
        "telefone": "39441135",
        "telefone2": "39441144",
        "email": null,
        "codigoCie": "901532"
    },
    {
        "id": 1748,
        "unidade": 2,
        "tipo": 21,
        "regiao": null,
        "nome": "PROF. DIRCE ELIAS",
        "endereco": "Estrada Municipal dos Freitas, S N - Bairro dos Freitas, São José dos Campos - SP, Brasil",
        "lat": "-23.11049093",
        "lng": "-45.93640931",
        "telefone": "39481303",
        "telefone2": "39481048",
        "email": null,
        "codigoCie": "905124"
    },
    {
        "id": 1749,
        "unidade": 2,
        "tipo": 21,
        "regiao": null,
        "nome": "PROF. DOMINGOS DE MACEDO CUSTÓDIO",
        "endereco": "Praça Benedito Ugolino Silva Guerra, 311 - Vila São Benedito, São José dos Campos - SP, Brasil",
        "lat": "-23.19571799",
        "lng": "-45.86446185",
        "telefone": "39222419",
        "telefone2": "39222004",
        "email": null,
        "codigoCie": "42336"
    },
    {
        "id": 1750,
        "unidade": 2,
        "tipo": 21,
        "regiao": null,
        "nome": "PROF. DORIVAL MONTEIRO DE OLIVEIRA",
        "endereco": "Rua dos Pedreiros, 367 - Parque Novo Horizonte, São José dos Campos - SP, Brasil",
        "lat": "-23.19446291",
        "lng": "-45.78575717",
        "telefone": "39071570",
        "telefone2": "39072009",
        "email": null,
        "codigoCie": "42304"
    },
    {
        "id": 1751,
        "unidade": 2,
        "tipo": 21,
        "regiao": null,
        "nome": "PROF. ÉDERA IRENE PEREIRA DE OLIVEIRA CARDOSO",
        "endereco": "Rua São Januário, 81 - Bairro São Judas Tadeu, São José dos Campos - SP, Brasil",
        "lat": "-23.25439767",
        "lng": "-45.83160178",
        "telefone": "39441675",
        "telefone2": "39445190",
        "email": null,
        "codigoCie": "925925"
    },
    {
        "id": 1752,
        "unidade": 2,
        "tipo": 21,
        "regiao": 2,
        "nome": "PROF. EDEWALDO FREITAS GAIA SANT ANA",
        "endereco": "Rua do Rosário, 540 - Jardim América, São José dos Campos - SP, Brasil",
        "lat": "-23.23440159",
        "lng": "-45.90027992",
        "telefone": "39314667",
        "telefone2": "39317118",
        "email": null,
        "codigoCie": "13493"
    },
    {
        "id": 1753,
        "unidade": 2,
        "tipo": 21,
        "regiao": null,
        "nome": "ENG. EDGAR DE MELLO MATTOS DE CASTRO",
        "endereco": "Avenida do Imperador, 701 - Campo dos Alemães, São José dos Campos - SP, Brasil",
        "lat": "-23.27278882",
        "lng": "-45.90311356",
        "telefone": "39661272",
        "telefone2": "39661799",
        "email": "",
        "codigoCie": "917254"
    },
    {
        "id": 1754,
        "unidade": 2,
        "tipo": 21,
        "regiao": null,
        "nome": "PROF. ELÍDIA TEDESCO DE OLIVEIRA",
        "endereco": "Rua Juvenal dos Santos, 4 - Bairro Galo Branco, São José dos Campos - SP, Brasil",
        "lat": "-23.14167082",
        "lng": "-45.77571032",
        "telefone": "39052196",
        "telefone2": "39050221",
        "email": null,
        "codigoCie": "920459"
    },
    {
        "id": 1755,
        "unidade": 2,
        "tipo": 21,
        "regiao": null,
        "nome": "ELMANO FERREIRA VELOSO",
        "endereco": "Rua Monte Azul, 795 - Chácaras Reunidas, São José dos Campos - SP, Brasil",
        "lat": "-23.25227516",
        "lng": "-45.92413034",
        "telefone": "39314646",
        "telefone2": "39319884",
        "email": null,
        "codigoCie": "35385"
    },
    {
        "id": 1756,
        "unidade": 2,
        "tipo": 21,
        "regiao": null,
        "nome": "PROF. ESTEVAM FERRI",
        "endereco": "Rua Cantídio Miragaia, 100 - Monte Castelo, São José dos Campos - SP, Brasil",
        "lat": "-23.18304152",
        "lng": "-45.87471258",
        "telefone": "39419795",
        "telefone2": "39411766",
        "email": "",
        "codigoCie": "23462"
    },
    {
        "id": 1757,
        "unidade": 2,
        "tipo": 21,
        "regiao": null,
        "nome": "EUCLIDES BUENO MIRAGAIA",
        "endereco": "Rodovia dos Tamoios, 470 - Vila Nair, São José dos Campos - SP, Brasil",
        "lat": "-23.21840849",
        "lng": "-45.88013186",
        "telefone": "39210167",
        "telefone2": " ",
        "email": null,
        "codigoCie": "13602"
    },
    {
        "id": 1758,
        "unidade": 2,
        "tipo": 21,
        "regiao": null,
        "nome": "PROF. EUNICE CORDEIRO DOS SANTOS RODRIGUES",
        "endereco": "Rua Major Manoel Fernandes Netto, 370 - Vila São Geraldo, São José dos Campos - SP, Brasil",
        "lat": "-23.14790023",
        "lng": "-45.91105768",
        "telefone": "39234955",
        "telefone2": "39214606",
        "email": null,
        "codigoCie": "13511"
    },
    {
        "id": 1759,
        "unidade": 2,
        "tipo": 21,
        "regiao": null,
        "nome": "PROF. FELÍCIO SAVASTANO",
        "endereco": "Rua Capitão Raul Fagundes, 341 - Monte Castelo, São José dos Campos - SP, Brasil",
        "lat": "-23.18287929",
        "lng": "-45.87296851",
        "telefone": "39234700",
        "telefone2": "39227034",
        "email": null,
        "codigoCie": "13457"
    },
    {
        "id": 1760,
        "unidade": 2,
        "tipo": 21,
        "regiao": null,
        "nome": "PROF. FRANCISCO JOÃO LEME",
        "endereco": "Rua da Constituinte, 37 - Alto da Ponte, São José dos Campos - SP, Brasil",
        "lat": "-23.15098179",
        "lng": "-45.90285945",
        "telefone": "39216015",
        "telefone2": "39220615",
        "email": null,
        "codigoCie": "13638"
    },
    {
        "id": 1761,
        "unidade": 2,
        "tipo": 21,
        "regiao": null,
        "nome": "PROF. FRANCISCO LOPES DE AZEVEDO",
        "endereco": "Rua Antares, 330 - Jardim Satélite, São José dos Campos - SP, Brasil",
        "lat": "-23.22048008",
        "lng": "-45.89608033",
        "telefone": "39311723",
        "telefone2": "39314788",
        "email": null,
        "codigoCie": "39640"
    },
    {
        "id": 1762,
        "unidade": 2,
        "tipo": 21,
        "regiao": null,
        "nome": "PROF. FRANCISCO PEREIRA DA SILVA",
        "endereco": "Praça Uirapuru, 131 - Vila Tatetuba, São José dos Campos - SP, Brasil",
        "lat": "-23.18309487",
        "lng": "-45.85392063",
        "telefone": "39295572",
        "telefone2": "39122418",
        "email": null,
        "codigoCie": "13936"
    },
    {
        "id": 1763,
        "unidade": 2,
        "tipo": 21,
        "regiao": null,
        "nome": "PROF. GERALDINA COELHO MONTEIRO",
        "endereco": "Rua Professora Maria Helena Moreira de Queiroz, 186 - Jardim Nova Michigan, São José dos Campos - SP, Brasil",
        "lat": "-23.18715957",
        "lng": "-45.79527950",
        "telefone": "39071606",
        "telefone2": " ",
        "email": null,
        "codigoCie": "901581"
    },
    {
        "id": 1764,
        "unidade": 2,
        "tipo": 21,
        "regiao": null,
        "nome": "PROF. HENRIQUETA COSTA PORTO",
        "endereco": "Rua Santarém, 970 - Parque Industrial, São José dos Campos - SP, Brasil",
        "lat": "-23.23427818",
        "lng": "-45.90861322",
        "telefone": "39312300",
        "telefone2": " ",
        "email": null,
        "codigoCie": "47946"
    },
    {
        "id": 1765,
        "unidade": 2,
        "tipo": 21,
        "regiao": null,
        "nome": "PROF. ILZA IRMA MOELLER COPPIO",
        "endereco": "Rua Jaguari, 362 - Vila Sinhá, São José dos Campos - SP, Brasil",
        "lat": "-23.15667065",
        "lng": "-45.90583220",
        "telefone": "39217820",
        "telefone2": "39213121",
        "email": null,
        "codigoCie": "13523"
    },
    {
        "id": 1766,
        "unidade": 2,
        "tipo": 21,
        "regiao": null,
        "nome": "PROF. IRACEMA RIBEIRO DE FREITAS",
        "endereco": "Praça Muriaé, 07 - Vila Iracema, São José dos Campos - SP, Brasil",
        "lat": "-23.24906948",
        "lng": "-45.82843752",
        "telefone": "39441593",
        "telefone2": " ",
        "email": null,
        "codigoCie": "47961"
    },
    {
        "id": 1767,
        "unidade": 2,
        "tipo": 21,
        "regiao": null,
        "nome": "JARDIM REPÚBLICA",
        "endereco": "Rua Oscar Ferreira da Silva, 155 - Jardim República, São José dos Campos - SP, Brasil",
        "lat": "-23.28938256",
        "lng": "-45.89808947",
        "telefone": "39441447",
        "telefone2": " ",
        "email": null,
        "codigoCie": "495529"
    },
    {
        "id": 1768,
        "unidade": 2,
        "tipo": 21,
        "regiao": null,
        "nome": "PROF. JENI DAVI BACHA",
        "endereco": "Rua Antonio de Oliveira Pinto, 83 - Buquirinha, São José dos Campos - SP, Brasil",
        "lat": "-23.11140828",
        "lng": "-45.91303240",
        "telefone": "39481188",
        "telefone2": "39481033",
        "email": null,
        "codigoCie": "37849"
    },
    {
        "id": 1769,
        "unidade": 2,
        "tipo": 21,
        "regiao": null,
        "nome": "JOÃO CURSINO",
        "endereco": "Avenida Engenheiro Francisco José Longo, 782 - Jardim São Dimas, São José dos Campos - SP, Brasil",
        "lat": "-23.20010501",
        "lng": "-45.88920347",
        "telefone": "39215804",
        "telefone2": " ",
        "email": "",
        "codigoCie": "13948"
    },
    {
        "id": 1770,
        "unidade": 2,
        "tipo": 21,
        "regiao": null,
        "nome": "PROF. JOÃO FERREIRA DOS SANTOS",
        "endereco": "Rua Quinze de Outubro, 80 - Jardim Cerejeiras, São José dos Campos - SP, Brasil",
        "lat": "-23.19483922",
        "lng": "-45.79174615",
        "telefone": "39071033",
        "telefone2": "39072007",
        "email": null,
        "codigoCie": "916304"
    },
    {
        "id": 1771,
        "unidade": 2,
        "tipo": 21,
        "regiao": null,
        "nome": "JOÃO MOROTTI FILHO",
        "endereco": "Rua Irene Toledo de Souza Gomes, S N - Bom Retiro, São José dos Campos - SP, Brasil",
        "lat": "-23.20918482",
        "lng": "-45.75353452",
        "telefone": "39071388",
        "telefone2": "39070478",
        "email": null,
        "codigoCie": "915026"
    },
    {
        "id": 1772,
        "unidade": 2,
        "tipo": 21,
        "regiao": null,
        "nome": "PROF. JOAQUIM ANDRADE MEIRELLES",
        "endereco": "Rua Mardanduba, S N - Jardim Satélite, São José dos Campos - SP, Brasil",
        "lat": "-23.23289752",
        "lng": "-45.88226303",
        "telefone": "39330993",
        "telefone2": " ",
        "email": null,
        "codigoCie": "35373"
    },
    {
        "id": 1773,
        "unidade": 2,
        "tipo": 21,
        "regiao": null,
        "nome": "PROF. JOAQUIM DE MOURA CANDELÁRIA",
        "endereco": "Rua Josefa Albuquerque dos Santos, 831 - Jardim Morumbi, São José dos Campos - SP, Brasil",
        "lat": "-23.25654257",
        "lng": "-45.90923975",
        "telefone": "39311908",
        "telefone2": " ",
        "email": null,
        "codigoCie": "911392"
    },
    {
        "id": 1774,
        "unidade": 2,
        "tipo": 21,
        "regiao": null,
        "nome": "PROF. JORGE BARBOSA MOREIRA",
        "endereco": "Avenida Maria Candida Delgado, 10 - Vila Cândida, São José dos Campos - SP, Brasil",
        "lat": "-23.14062951",
        "lng": "-45.90182373",
        "telefone": "39234689",
        "telefone2": "39223856",
        "email": null,
        "codigoCie": "13559"
    },
    {
        "id": 1775,
        "unidade": 2,
        "tipo": 21,
        "regiao": null,
        "nome": "PROF. JOSÉ ANTONIO COUTINHO CONDINO",
        "endereco": "Rua A, 1477 - Jardim Santa Hermínia, São José dos Campos - SP, Brasil",
        "lat": "-23.21092458",
        "lng": "-45.77919892",
        "telefone": "39071806",
        "telefone2": "39070004",
        "email": null,
        "codigoCie": "912712"
    },
    {
        "id": 1776,
        "unidade": 2,
        "tipo": 21,
        "regiao": null,
        "nome": "PROF. JOSÉ FREDERICO MARQUES",
        "endereco": "Rua Nelson José de Carvalho Ferreira, 91 - Campo dos Alemães, São José dos Campos - SP, Brasil",
        "lat": "-23.26839747",
        "lng": "-45.90014789",
        "telefone": "39661221",
        "telefone2": "39661664",
        "email": null,
        "codigoCie": "919755"
    },
    {
        "id": 1777,
        "unidade": 2,
        "tipo": 21,
        "regiao": null,
        "nome": "MAJ. AVIADOR JOSÉ MARIOTTO FERREIRA",
        "endereco": "Praça Marechal do Ar Eduardo Gomes, 50 - Vila das Acácias   CTA, São José dos Campos - SP, Brasil",
        "lat": "-23.20301843",
        "lng": "-45.86920183",
        "telefone": "39473173",
        "telefone2": " ",
        "email": null,
        "codigoCie": "13869"
    },
    {
        "id": 1778,
        "unidade": 2,
        "tipo": 21,
        "regiao": null,
        "nome": "PROF. JOSÉ VIEIRA MACEDO",
        "endereco": "Rua Ipiau, 162 - Jardim Satélite, São José dos Campos - SP, Brasil",
        "lat": "-23.23085266",
        "lng": "-45.88818713",
        "telefone": "39315911",
        "telefone2": "39317542",
        "email": null,
        "codigoCie": "13560"
    },
    {
        "id": 1779,
        "unidade": 2,
        "tipo": 21,
        "regiao": null,
        "nome": "PROF. JÚLIA BERNARDES RODRIGUES",
        "endereco": "Avenida São Cristóvão, 843 - São Judas Tadeu, São José dos Campos - SP, Brasil",
        "lat": "-23.25510824",
        "lng": "-45.83063935",
        "telefone": "39441424",
        "telefone2": "39441815",
        "email": null,
        "codigoCie": "901568"
    },
    {
        "id": 1780,
        "unidade": 2,
        "tipo": 21,
        "regiao": null,
        "nome": "PROF. JUVENAL MACHADO DE ARAÚJO",
        "endereco": "Rua Vicente Celestino, 150 - Vila Tesouro, São José dos Campos - SP, Brasil",
        "lat": "-23.17030819",
        "lng": "-45.84056419",
        "telefone": "39296447",
        "telefone2": " ",
        "email": null,
        "codigoCie": "35397"
    },
    {
        "id": 1781,
        "unidade": 2,
        "tipo": 21,
        "regiao": null,
        "nome": "PROF. LOURDES MARIA DE CAMARGO",
        "endereco": "Avenida Dom Pedro I, 341 - Jardim Imperial, São José dos Campos - SP, Brasil",
        "lat": "-23.28254172",
        "lng": "-45.89756585",
        "telefone": "39661344",
        "telefone2": "39661117",
        "email": null,
        "codigoCie": "37837"
    },
    {
        "id": 1782,
        "unidade": 2,
        "tipo": 21,
        "regiao": null,
        "nome": "PROF. MALBA THEREZA FERRAZ CAMPANER",
        "endereco": "Praça Mikado, 142 - Jardim Oriente, São José dos Campos - SP, Brasil",
        "lat": "-23.24223922",
        "lng": "-45.89607705",
        "telefone": "39316322",
        "telefone2": "39318415",
        "email": null,
        "codigoCie": "42316"
    },
    {
        "id": 1783,
        "unidade": 2,
        "tipo": 21,
        "regiao": null,
        "nome": "PROF. MÁRCIA HELENA BARBOSA LINO",
        "endereco": "Rua José Rodriogues Salgado, 150 - Campo dos Alemães, São José dos Campos - SP, Brasil",
        "lat": "-23.26961432",
        "lng": "-45.89052860",
        "telefone": "39661699",
        "telefone2": "39661357",
        "email": null,
        "codigoCie": "922018"
    },
    {
        "id": 1784,
        "unidade": 2,
        "tipo": 21,
        "regiao": null,
        "nome": "MARECHAL RONDON",
        "endereco": "Praça Francisco Escobar, 165 - Monte Castelo, São José dos Campos - SP, Brasil",
        "lat": "-23.18388201",
        "lng": "-45.87478701",
        "telefone": "39218626",
        "telefone2": "39225778",
        "email": null,
        "codigoCie": "13912"
    },
    {
        "id": 1785,
        "unidade": 2,
        "tipo": 21,
        "regiao": null,
        "nome": "PROF. MARIA APARECIDA VERÍSSIMO MADUREIRA RAMOS",
        "endereco": "Rua dos Carvalhos, 30 - Jardim das Indústrias, São José dos Campos - SP, Brasil",
        "lat": "-23.22893252",
        "lng": "-45.92314206",
        "telefone": "39318798",
        "telefone2": " ",
        "email": null,
        "codigoCie": "905100"
    },
    {
        "id": 1786,
        "unidade": 2,
        "tipo": 21,
        "regiao": null,
        "nome": "PROF. MARIA DOLORES VERÍSSIMO MADUREIRA",
        "endereco": "Rua Serra do Roncador, 310 - Jardim Anhembi, São José dos Campos - SP, Brasil",
        "lat": "-23.22467439",
        "lng": "-45.89926178",
        "telefone": "39314645",
        "telefone2": "39312849",
        "email": null,
        "codigoCie": "35361"
    },
    {
        "id": 1787,
        "unidade": 2,
        "tipo": 21,
        "regiao": null,
        "nome": "PROF. MARIA GOMIDE SANTOS DE SOUZA",
        "endereco": "Rua Zélia Albuquerque dos Santos, 452 - Jardim Morumbi, São José dos Campos - SP, Brasil",
        "lat": "-23.25114049",
        "lng": "-45.90751489",
        "telefone": "39310377",
        "telefone2": "39316089",
        "email": null,
        "codigoCie": "919731"
    },
    {
        "id": 1788,
        "unidade": 2,
        "tipo": 21,
        "regiao": null,
        "nome": "PROF. MARIA LUIZA DE GUIMARÃES MEDEIROS",
        "endereco": "Rua São Luiz Gonzaga, 89 - Santana, São José dos Campos - SP, Brasil",
        "lat": "-23.16292869",
        "lng": "-45.89926623",
        "telefone": "39221606",
        "telefone2": " ",
        "email": null,
        "codigoCie": "13754"
    },
    {
        "id": 1789,
        "unidade": 2,
        "tipo": 21,
        "regiao": null,
        "nome": "MARILDA FERREIRA DE BRITO BARROS PEREIRA",
        "endereco": "Rua Manoel Saldanha, 401 - Vale dos Pinheiros, São José dos Campos - SP, Brasil",
        "lat": "-23.19800701",
        "lng": "-45.91231255",
        "telefone": "39222543",
        "telefone2": "39226020",
        "email": null,
        "codigoCie": "45470"
    },
    {
        "id": 1790,
        "unidade": 2,
        "tipo": 21,
        "regiao": null,
        "nome": "DR. MAURÍCIO ANISSE CURY",
        "endereco": "Avenida Francisco José Longo, 832 - Jardim São Dimas, São José dos Campos - SP, Brasil",
        "lat": "-23.20079908",
        "lng": "-45.88905826",
        "telefone": "39212777",
        "telefone2": "39227834",
        "email": null,
        "codigoCie": "13791"
    },
    {
        "id": 1791,
        "unidade": 2,
        "tipo": 21,
        "regiao": null,
        "nome": "MAJ. MIGUEL NAKED",
        "endereco": "Avenida Benedito Bento, 195 - Jardim Morumbi, São José dos Campos - SP, Brasil",
        "lat": "-23.24998195",
        "lng": "-45.90499100",
        "telefone": "39316244",
        "telefone2": "39312922",
        "email": null,
        "codigoCie": "45469"
    },
    {
        "id": 1792,
        "unidade": 2,
        "tipo": 21,
        "regiao": null,
        "nome": "PROF. MOABE CURY",
        "endereco": "Rua Avelino Alves da Silva, 101 - Conjunto Residencial Elmano Veloso, São José dos Campos - SP, Brasil",
        "lat": "-23.27889282",
        "lng": "-45.89364368",
        "telefone": "39661439",
        "telefone2": "39661988",
        "email": null,
        "codigoCie": "47934"
    },
    {
        "id": 1793,
        "unidade": 2,
        "tipo": 21,
        "regiao": null,
        "nome": "PROF. NAJLA JAMILE SANTOS MACHADO ARAÚJO",
        "endereco": "Rua Oswaldo Orlando Costa, 352 - Conjunto Residencial Dom Pedro I, São José dos Campos - SP, Brasil",
        "lat": "-23.27704755",
        "lng": "-45.89229603",
        "telefone": "39661770",
        "telefone2": "39661548",
        "email": null,
        "codigoCie": "921282"
    },
    {
        "id": 1794,
        "unidade": 2,
        "tipo": 21,
        "regiao": null,
        "nome": "PROF. NELSON FERREIRA DA SILVA",
        "endereco": "Rua Wladimir Herzog, 400 - Bosque dos Eucaliptos, São José dos Campos - SP, Brasil",
        "lat": "-23.25485726",
        "lng": "-45.88669570",
        "telefone": "39361900",
        "telefone2": "39361140",
        "email": null,
        "codigoCie": "901556"
    },
    {
        "id": 1795,
        "unidade": 2,
        "tipo": 21,
        "regiao": null,
        "nome": "PROF. NELSON DO NASCIMENTO MONTEIRO",
        "endereco": "Rua Hermenegildo Scarenci, 91 - Conjunto Residencial Trinta e Um de Março  Parque Industrial, São José dos Campos - SP, Brasil",
        "lat": "-23.24764127",
        "lng": "-45.91722236",
        "telefone": "39315844",
        "telefone2": " ",
        "email": null,
        "codigoCie": "42328"
    },
    {
        "id": 1796,
        "unidade": 2,
        "tipo": 21,
        "regiao": null,
        "nome": "PROF. NILCE CONCEIÇÃO LIMA",
        "endereco": "Rua Natálio Angelo Stabeli, 84 - Jardim São Leopoldo, São José dos Campos - SP, Brasil",
        "lat": "-23.24462394",
        "lng": "-45.82483513",
        "telefone": "39441582",
        "telefone2": "39441355",
        "email": null,
        "codigoCie": "922857"
    },
    {
        "id": 1797,
        "unidade": 2,
        "tipo": 21,
        "regiao": null,
        "nome": "OLÍMPIO CATÃO",
        "endereco": "Praça Afonso Pena, S N - Centro, São José dos Campos - SP, Brasil",
        "lat": "-23.18391821",
        "lng": "-45.88712011",
        "telefone": "39220729",
        "telefone2": "39215604",
        "email": null,
        "codigoCie": "13626"
    },
    {
        "id": 1798,
        "unidade": 2,
        "tipo": 21,
        "regiao": null,
        "nome": "DR. PEDRO MASCARENHAS",
        "endereco": "Avenida Ambrósio Molina, 306 - Distrito de Eugênio de Melo, São José dos Campos - SP, Brasil",
        "lat": "-23.14105132",
        "lng": "-45.78551175",
        "telefone": "39051361",
        "telefone2": "39051862",
        "email": null,
        "codigoCie": "13596"
    },
    {
        "id": 1799,
        "unidade": 2,
        "tipo": 21,
        "regiao": null,
        "nome": "PROF. PEDRO MAZZA",
        "endereco": "Rua Odete Mimesse, 160 - Jardim da Granja, São José dos Campos - SP, Brasil",
        "lat": "-23.20170690",
        "lng": "-45.85715695",
        "telefone": "39234623",
        "telefone2": "39227990",
        "email": null,
        "codigoCie": "13584"
    },
    {
        "id": 1800,
        "unidade": 2,
        "tipo": 21,
        "regiao": null,
        "nome": "DR. RUI RODRIGUES DÓRIA",
        "endereco": "Rua Olívo Gomes, 329 - Santana, São José dos Campos - SP, Brasil",
        "lat": "-23.16203623",
        "lng": "-45.89432636",
        "telefone": "39220438",
        "telefone2": "39226016",
        "email": null,
        "codigoCie": "13924"
    },
    {
        "id": 1801,
        "unidade": 2,
        "tipo": 21,
        "regiao": null,
        "nome": "PROF. RUTH COUTINHO SOBREIRO",
        "endereco": "Rua José Alves de Paiva, 530 - Jardim Santa Inês II, São José dos Campos - SP, Brasil",
        "lat": "-23.17132765",
        "lng": "-45.80222305",
        "telefone": "39126477",
        "telefone2": "39295433",
        "email": null,
        "codigoCie": "902548"
    },
    {
        "id": 1802,
        "unidade": 2,
        "tipo": 21,
        "regiao": 2,
        "nome": "SANTANA DO PARAÍBA",
        "endereco": "Rua Guarani, 130 - Santana, São José dos Campos - SP, Brasil",
        "lat": "-23.15893234",
        "lng": "-45.89641433",
        "telefone": "39217261",
        "telefone2": "39216870",
        "email": "",
        "codigoCie": "13651"
    },
    {
        "id": 1803,
        "unidade": 2,
        "tipo": 21,
        "regiao": null,
        "nome": "PROF. SÔNIA MARIA ALEXANDRE PEREIRA",
        "endereco": "Rua Waldemar Teixeira, 1000 - Parque Interlagos, São José dos Campos - SP, Brasil",
        "lat": "-23.27111717",
        "lng": "-45.86233707",
        "telefone": "39445447",
        "telefone2": " ",
        "email": null,
        "codigoCie": "351064"
    },
    {
        "id": 1804,
        "unidade": 2,
        "tipo": 21,
        "regiao": null,
        "nome": "PROF. SUELY ANTUNES DE MELLO",
        "endereco": "Rua Siqueira Campos, 845 - Vila Maria, São José dos Campos - SP, Brasil",
        "lat": "-23.17847991",
        "lng": "-45.87859097",
        "telefone": "39213944",
        "telefone2": "39229848",
        "email": null,
        "codigoCie": "13894"
    },
    {
        "id": 1805,
        "unidade": 2,
        "tipo": 21,
        "regiao": null,
        "nome": "UBIRAJARA BERNA DE CHIARA",
        "endereco": "Rua Flor de Liz, 113 - Jardim das Flores, São José dos Campos - SP, Brasil",
        "lat": "-23.14690975",
        "lng": "-45.79713922",
        "telefone": "39051511",
        "telefone2": "39051011",
        "email": null,
        "codigoCie": "901573"
    },
    {
        "id": 1806,
        "unidade": 2,
        "tipo": 21,
        "regiao": null,
        "nome": "PROF. VALMAR LOURENÇO SANTIAGO",
        "endereco": "Rua Dantas Luis do Prado, 345 - Campos de São José, São José dos Campos - SP, Brasil",
        "lat": "-23.20999829",
        "lng": "-45.80998072",
        "telefone": "39022460",
        "telefone2": "39022440",
        "email": null,
        "codigoCie": "20874"
    },
    {
        "id": 1807,
        "unidade": 2,
        "tipo": 21,
        "regiao": null,
        "nome": "PROF. WILMA RAGAZZI BOCCARDO",
        "endereco": "Rua Bacabal, 3550 - Parque Industrial, São José dos Campos - SP, Brasil",
        "lat": "-23.25444565",
        "lng": "-45.91527786",
        "telefone": "39319553",
        "telefone2": "39314670",
        "email": null,
        "codigoCie": "13778"
    },
    {
        "id": 1808,
        "unidade": 2,
        "tipo": 21,
        "regiao": null,
        "nome": "PROF. XENOFONTE STRABÃO DE CASTRO",
        "endereco": "Rua Abelardo Alves de Paiva, 53 - Jardim Santa Inês I, São José dos Campos - SP, Brasil",
        "lat": "-23.17331347",
        "lng": "-45.79603222",
        "telefone": "39293031",
        "telefone2": "39120580",
        "email": null,
        "codigoCie": "917266"
    },
    {
        "id": 1809,
        "unidade": 2,
        "tipo": 21,
        "regiao": null,
        "nome": "YOSHIYA TAKAOKA",
        "endereco": "Rua José Bonifácio de Arantes, 272 - Vila Paiva, São José dos Campos - SP, Brasil",
        "lat": "-23.14131433",
        "lng": "-45.91101369",
        "telefone": "39234743",
        "telefone2": "39223330",
        "email": null,
        "codigoCie": "13648"
    },
    {
        "id": 1810,
        "unidade": 2,
        "tipo": 21,
        "regiao": null,
        "nome": "ZILAH FERREIRA VIAGI PASSARELI DE CAMPOS",
        "endereco": "Rua Votuporanga, 326 - Bosque dos Eucaliptos, São José dos Campos - SP, Brasil",
        "lat": "-23.25820266",
        "lng": "-45.89079944",
        "telefone": "39234743",
        "telefone2": "39361080",
        "email": null,
        "codigoCie": "919724"
    },
    {
        "id": 1811,
        "unidade": 2,
        "tipo": 21,
        "regiao": null,
        "nome": "PROF. ZILDA ALMITIRA SOCI",
        "endereco": "Largo Boa Vista, 480 - Jardim Boa Vista, São José dos Campos - SP, Brasil",
        "lat": "-23.13437313",
        "lng": "-45.91102295",
        "telefone": "39234690",
        "telefone2": "39427115",
        "email": null,
        "codigoCie": "13500"
    },
    {
        "id": 1812,
        "unidade": 2,
        "tipo": 21,
        "regiao": null,
        "nome": "DO BENGALAR sede: Zilda Altimira",
        "endereco": "Estrada do Santo Ivo, 11 - Bengalar, São José dos Campos - SP, Brasil",
        "lat": "-23.11645771",
        "lng": "-45.97143900",
        "telefone": "39234690",
        "telefone2": "39427115",
        "email": null,
        "codigoCie": "315114"
    },
    {
        "id": 1813,
        "unidade": 2,
        "tipo": 21,
        "regiao": null,
        "nome": "DO BOM SUCESSO sede: Zilda Altimira",
        "endereco": "Estrada do Bom Sucesso, S N - Bom Sucesso, São José dos Campos - SP, Brasil",
        "lat": "-23.10436681",
        "lng": "-46.00417620",
        "telefone": "39234690",
        "telefone2": "39427115",
        "email": null,
        "codigoCie": "315102"
    },
    {
        "id": 1814,
        "unidade": 2,
        "tipo": 21,
        "regiao": null,
        "nome": "DO TURVO sede: Zilda Altimira",
        "endereco": "Estrada Municipal do Turvo, S N - Turvo, São José dos Campos - SP, Brasil",
        "lat": "-23.05570365",
        "lng": "-45.96556004",
        "telefone": "39234690",
        "telefone2": "39427115",
        "email": null,
        "codigoCie": "542787"
    },
    {
        "id": 1815,
        "unidade": 1,
        "tipo": 15,
        "regiao": null,
        "nome": "PROF. ANJELA MARIA DE SOUZA ALVES",
        "endereco": "Avenida Benedito Bento, 80 - Cidade Morumbi, São José dos Campos - SP, Brasil",
        "lat": "-23.25026365",
        "lng": "-45.90750839",
        "telefone": "39315466",
        "telefone2": " ",
        "email": "",
        "codigoCie": "225472"
    },
    {
        "id": 1816,
        "unidade": 1,
        "tipo": 15,
        "regiao": null,
        "nome": "ARMILINDA LOCATELLI DE MACEDO",
        "endereco": "Rua Vitório Carnevalli, 176 - Vila Tesouro, São José dos Campos - SP, Brasil",
        "lat": "-23.17011346",
        "lng": "-45.83914454",
        "telefone": "39295149",
        "telefone2": " ",
        "email": null,
        "codigoCie": "225125"
    },
    {
        "id": 1817,
        "unidade": 1,
        "tipo": 15,
        "regiao": null,
        "nome": "BENEDITO CARVALHO DOS SANTOS",
        "endereco": "Avenida Senador Teotônio Vilela, 900 - Vila Santa Luzia, São José dos Campos - SP, Brasil",
        "lat": "-23.18285526",
        "lng": "-45.87764074",
        "telefone": "39225253",
        "telefone2": " ",
        "email": null,
        "codigoCie": "225137"
    },
    {
        "id": 1818,
        "unidade": 1,
        "tipo": 15,
        "regiao": null,
        "nome": "PROF. DIMÉIA MARIA FERREIRA DINIZ ENDO",
        "endereco": "Rua Nelson José de Carvalho Ferreira, 91 - Campo dos Alemães, São José dos Campos - SP, Brasil",
        "lat": "-23.26910696",
        "lng": "-45.90004439",
        "telefone": "39661605",
        "telefone2": " ",
        "email": null,
        "codigoCie": "225484"
    },
    {
        "id": 1819,
        "unidade": 1,
        "tipo": 15,
        "regiao": null,
        "nome": "ELIANA DE OLIVEIRA SANTOS CRUZ",
        "endereco": "Rua Celso Negrão, 150 - Residencial Armando Moreira Righ - Eugênio de Melo, São José dos Campos - SP, Brasil",
        "lat": "-23.13644588",
        "lng": "-45.76693451",
        "telefone": "39123793",
        "telefone2": " ",
        "email": null,
        "codigoCie": "582578"
    },
    {
        "id": 1820,
        "unidade": 1,
        "tipo": 15,
        "regiao": null,
        "nome": "FERNANDO TAO DE AZEVEDO",
        "endereco": "Rua Bambuí, 250 - esq com Rua Cigarras - Jardim Satélite, São José dos Campos - SP, Brasil",
        "lat": "-23.22598982",
        "lng": "-45.88439782",
        "telefone": "39318990",
        "telefone2": " ",
        "email": null,
        "codigoCie": "497435"
    },
    {
        "id": 1821,
        "unidade": 1,
        "tipo": 15,
        "regiao": null,
        "nome": "FLÁVIO LENZI",
        "endereco": "Praça das Gaivotas, 535 - Vila Tatetuba, São José dos Campos - SP, Brasil",
        "lat": "-23.18217460",
        "lng": "45.84958318",
        "telefone": "39123027",
        "telefone2": " ",
        "email": null,
        "codigoCie": "225149"
    },
    {
        "id": 1822,
        "unidade": 1,
        "tipo": 15,
        "regiao": null,
        "nome": "PROF. HELENA FERREIRA",
        "endereco": "Rua Waldir Gaioso, 535 - Jardim Jussara, São José dos Campos - SP, Brasil",
        "lat": "-23.18764695",
        "lng": "-45.86827266",
        "telefone": "39118691",
        "telefone2": " ",
        "email": null,
        "codigoCie": "571222"
    },
    {
        "id": 1823,
        "unidade": 1,
        "tipo": 15,
        "regiao": null,
        "nome": "PROF. HELENA VAZ DE LIMA SOLIVA",
        "endereco": "Avenida Engenheiro Francisco José Longo, 526 - Jardim São Dimas, São José dos Campos - SP, Brasil",
        "lat": "-23.19762079",
        "lng": "-45.88951524",
        "telefone": "39128383",
        "telefone2": " ",
        "email": null,
        "codigoCie": "564849"
    },
    {
        "id": 1824,
        "unidade": 1,
        "tipo": 15,
        "regiao": null,
        "nome": "JESUS DE NAZARÉ",
        "endereco": "Rua Apa, 100 - Vila São Bento, São José dos Campos - SP, Brasil",
        "lat": "-23.22665072",
        "lng": "45.87582208",
        "telefone": "39222319",
        "telefone2": " ",
        "email": null,
        "codigoCie": "225496"
    },
    {
        "id": 1825,
        "unidade": 1,
        "tipo": 15,
        "regiao": null,
        "nome": "JOANA MATTAR DE OLIVEIRA",
        "endereco": "Rua José Cobra, 95 - Parque Industrial, São José dos Campos - SP, Brasil",
        "lat": "-23.23855693",
        "lng": "-45.90967972",
        "telefone": "39319818",
        "telefone2": " ",
        "email": null,
        "codigoCie": "225502"
    },
    {
        "id": 1826,
        "unidade": 1,
        "tipo": 15,
        "regiao": null,
        "nome": "JOÃO LOPES SIMÕES",
        "endereco": "Praça Alexandre Magno, 166 - Jd. do Céu   Jd Oriental, São José dos Campos - SP, Brasil",
        "lat": "-23.23885127",
        "lng": "-45.89930541",
        "telefone": "39310194",
        "telefone2": " ",
        "email": null,
        "codigoCie": "225514"
    },
    {
        "id": 1827,
        "unidade": 1,
        "tipo": 15,
        "regiao": null,
        "nome": "PROF. MARIA DE LOURDES CONSTANTINO",
        "endereco": "Rua dos Eletricistas, 330 - Parque Novo Horizonte, São José dos Campos - SP, Brasil",
        "lat": "-23.19478983",
        "lng": "-45.78473181",
        "telefone": "39072113",
        "telefone2": " ",
        "email": null,
        "codigoCie": "225162"
    },
    {
        "id": 1828,
        "unidade": 1,
        "tipo": 15,
        "regiao": null,
        "nome": "MARILDA FERREIRA DE BRITO BARROS PEREIRA",
        "endereco": "Praça dos Músicos, 140 - Jardim Valparaíba, São José dos Campos - SP, Brasil",
        "lat": "-23.17476249",
        "lng": "-45.84141094",
        "telefone": "39298083",
        "telefone2": " ",
        "email": null,
        "codigoCie": "225186"
    },
    {
        "id": 1829,
        "unidade": 1,
        "tipo": 15,
        "regiao": null,
        "nome": "MAROCA VENEZIANI",
        "endereco": "Rua Alziro Lebrão s n - Alto da Ponte, São José dos Campos - SP, Brasil",
        "lat": "-23.15195675",
        "lng": "-45.90002582",
        "telefone": "39229937",
        "telefone2": " ",
        "email": null,
        "codigoCie": "225174"
    },
    {
        "id": 1830,
        "unidade": 1,
        "tipo": 15,
        "regiao": null,
        "nome": "DOM PEDRO DE ALCÂNTARA",
        "endereco": "Rua José Benedito Castilho, s n   esq. Av Adilson José da Cruz, 7581 - Conjunto Habitacional Papa João Paulo II   Dom Pedro I, São José dos Campos - SP, Brasil",
        "lat": "-23.28003592",
        "lng": "-45.88603957",
        "telefone": "39662525",
        "telefone2": " ",
        "email": null,
        "codigoCie": "225551"
    },
    {
        "id": 1831,
        "unidade": 1,
        "tipo": 15,
        "regiao": null,
        "nome": "POUSADA DO VALE",
        "endereco": "Rua Cerejeira, s n - Chácara Pousada do Vale, São José dos Campos - SP, Brasil",
        "lat": "-23.21759824",
        "lng": "-45.79371687",
        "telefone": "39293168",
        "telefone2": " ",
        "email": null,
        "codigoCie": "74937"
    },
    {
        "id": 1832,
        "unidade": 1,
        "tipo": 11,
        "regiao": 7,
        "nome": "AMÁLIA BONDESAN DOS SANTOS",
        "endereco": "Rua Gal. Eugênio Augusto de Melo, 145 - Eugênio de Melo, São José dos Campos - SP, Brasil",
        "lat": "-23.13788017",
        "lng": "-45.78344922",
        "telefone": "39055059",
        "telefone2": " ",
        "email": "",
        "codigoCie": "420013"
    },
    {
        "id": 1833,
        "unidade": 1,
        "tipo": 11,
        "regiao": null,
        "nome": "PROF. DELZA GIOVANELLI FONSECA DA MATA",
        "endereco": "Avenida Alberto Renart, 515 - Jardim Santa Inês III, São José dos Campos - SP, Brasil",
        "lat": "-23.17434347",
        "lng": "-45.79099594",
        "telefone": "39024687",
        "telefone2": " ",
        "email": null,
        "codigoCie": "469233"
    },
    {
        "id": 1834,
        "unidade": 1,
        "tipo": 11,
        "regiao": null,
        "nome": "PROF. DEJANIRA MOREIRA MACHADO SANTOS",
        "endereco": "Rua Rodolfo de Aquino, 11 - Setville Altos de São José, São José dos Campos - SP, Brasil",
        "lat": "-23.21716383",
        "lng": "-45.81791987",
        "telefone": "39294779",
        "telefone2": " ",
        "email": null,
        "codigoCie": "5807"
    },
    {
        "id": 1835,
        "unidade": 1,
        "tipo": 11,
        "regiao": null,
        "nome": "DO JARDIM CASTANHEIRAS",
        "endereco": "Rua Maria Montezi Sant Anna, 171 - Jardim Castanheiras, São José dos Campos - SP, Brasil",
        "lat": "-23.18376297",
        "lng": "-45.79303016",
        "telefone": "39078068",
        "telefone2": " ",
        "email": null,
        "codigoCie": "441485"
    },
    {
        "id": 1836,
        "unidade": 1,
        "tipo": 11,
        "regiao": null,
        "nome": "MARIA APARECIDA BARBOZA PEDROZA",
        "endereco": "Rua Benedito Pereira Lima, 390 - Jardim Telespark, São José dos Campos - SP, Brasil",
        "lat": "-23.16105626",
        "lng": "-45.91023785",
        "telefone": "39418385",
        "telefone2": " ",
        "email": null,
        "codigoCie": "418559"
    },
    {
        "id": 1837,
        "unidade": 1,
        "tipo": 11,
        "regiao": null,
        "nome": "PROF. MARIA APARECIDA SEGOLIN DE REZENDE",
        "endereco": "Avenida João Rodolfo Castelli, 4025 - Pinheirinho dos Palmares, São José dos Campos - SP, Brasil",
        "lat": "-23.25436778",
        "lng": "-45.80274631",
        "telefone": "39122917",
        "telefone2": " ",
        "email": null,
        "codigoCie": "5250"
    },
    {
        "id": 1838,
        "unidade": 1,
        "tipo": 11,
        "regiao": null,
        "nome": "MÁRIO DONIZETE BORGES - LÍRIOS DO CAMPO III",
        "endereco": "Rua Frediano Bianchi Filho, 121   - Jardim São José II, São José dos Campos - SP, Brasil",
        "lat": "-23.16977974",
        "lng": "-45.77794320",
        "telefone": "39296741",
        "telefone2": " ",
        "email": null,
        "codigoCie": "294664"
    },
    {
        "id": 1839,
        "unidade": 1,
        "tipo": 11,
        "regiao": null,
        "nome": "PROF. PAULO CESAR DOS SANTOS MORTARI",
        "endereco": "Rua Simião Ferreira da Mata, 520  - Campo dos Alemães, São José dos Campos - SP, Brasil",
        "lat": "-23.27236296",
        "lng": "-45.89460892",
        "telefone": "39663627",
        "telefone2": " ",
        "email": null,
        "codigoCie": "302260"
    },
    {
        "id": 1840,
        "unidade": 1,
        "tipo": 11,
        "regiao": null,
        "nome": "SANTO ANTONIO SANT´ANNA GALVÃO",
        "endereco": "Avenida Domingos Maldonado Campoy, s n - Parque Residencial Flamboyant, São José dos Campos - SP, Brasil",
        "lat": "-23.21576212",
        "lng": "-45.85191098",
        "telefone": "39117283",
        "telefone2": " ",
        "email": null,
        "codigoCie": "436367"
    },
    {
        "id": 1841,
        "unidade": 1,
        "tipo": 11,
        "regiao": null,
        "nome": "DOUTORA ZILDA ARNS NEUMANN",
        "endereco": "Rua Luiz Monteiro Pinto, 173 - esq com Rua Icatu - Conjunto Residencial 31 de Março, São José dos Campos - SP, Brasil",
        "lat": "-23.24782201",
        "lng": "-45.91321101",
        "telefone": "39332028",
        "telefone2": " ",
        "email": null,
        "codigoCie": "455325"
    },
    {
        "id": 1842,
        "unidade": 1,
        "tipo": 16,
        "regiao": null,
        "nome": "AME",
        "endereco": "Rua Oscar Strauss, 344 - Bosque dos Eucaliptos, São José dos Campos - SP, Brasil",
        "lat": "-23.26247221",
        "lng": "-45.88832028",
        "telefone": "39361625",
        "telefone2": " ",
        "email": "",
        "codigoCie": "79868"
    },
    {
        "id": 1843,
        "unidade": 1,
        "tipo": 16,
        "regiao": null,
        "nome": "ANÁLIA FRANCO",
        "endereco": "Rua Antônio de Paula Ferreira, 52  - Centro, São José dos Campos - SP, Brasil",
        "lat": "-23.18965165",
        "lng": "-45.88362208",
        "telefone": "39434342",
        "telefone2": " ",
        "email": null,
        "codigoCie": "808885"
    },
    {
        "id": 1844,
        "unidade": 1,
        "tipo": 16,
        "regiao": null,
        "nome": "CASEPAFE",
        "endereco": "Rua A, 1887 - Jardim Santa Hermínia, São José dos Campos - SP, Brasil",
        "lat": "-23.21213598",
        "lng": "-45.78106661",
        "telefone": "39076845",
        "telefone2": " ",
        "email": null,
        "codigoCie": "808891"
    },
    {
        "id": 1845,
        "unidade": 1,
        "tipo": 16,
        "regiao": null,
        "nome": "CÉLIO LEMOS",
        "endereco": "Rua Ana Gonçalves da Cunha, 30  - Jardim Jussara, São José dos Campos - SP, Brasil",
        "lat": "-23.18829719",
        "lng": "-45.87236047",
        "telefone": "39216191",
        "telefone2": " ",
        "email": null,
        "codigoCie": "194402"
    },
    {
        "id": 1846,
        "unidade": 1,
        "tipo": 16,
        "regiao": null,
        "nome": "ÉDEN LAR DAS CRIANÇAS I",
        "endereco": "Avenida dos Estados, 418  - Vila Maria, São José dos Campos - SP, Brasil",
        "lat": "-23.17609397",
        "lng": "-45.87841732",
        "telefone": "32068480",
        "telefone2": " ",
        "email": null,
        "codigoCie": "299509"
    },
    {
        "id": 1847,
        "unidade": 1,
        "tipo": 16,
        "regiao": null,
        "nome": "ÉDEN LAR DAS CRIANÇAS II",
        "endereco": "Rua Maricá, 177   - Jardim Satélite, São José dos Campos - SP, Brasil",
        "lat": "-23.22469867",
        "lng": "-45.88347880",
        "telefone": "39312636",
        "telefone2": " ",
        "email": null,
        "codigoCie": "294706"
    },
    {
        "id": 1848,
        "unidade": 1,
        "tipo": 16,
        "regiao": null,
        "nome": "IRMÃ CLARA",
        "endereco": "Avenida Tancredo Neves, 1255   - Jardim Paraíso do Sol, São José dos Campos - SP, Brasil",
        "lat": "-23.18329597",
        "lng": "-45.80073247",
        "telefone": "39071089",
        "telefone2": " ",
        "email": null,
        "codigoCie": "61359"
    },
    {
        "id": 1849,
        "unidade": 1,
        "tipo": 16,
        "regiao": null,
        "nome": "IRMÃS CARMELITAS",
        "endereco": "Rua Anna Ortega Traballi, 08  - Vila São Geraldo, São José dos Campos - SP, Brasil",
        "lat": "-23.14792070",
        "lng": "-45.91035943",
        "telefone": "39214364",
        "telefone2": " ",
        "email": null,
        "codigoCie": "294697"
    },
    {
        "id": 1850,
        "unidade": 1,
        "tipo": 16,
        "regiao": null,
        "nome": "LÍRIOS DO CAMPO I",
        "endereco": "Estrada Municipal José Augusto Teixeira, 148   - Torrão de Ouro , São José dos Campos - SP, Brasil",
        "lat": "-23.26781762",
        "lng": "-45.87387332",
        "telefone": "41411058",
        "telefone2": " ",
        "email": null,
        "codigoCie": "83707"
    },
    {
        "id": 1851,
        "unidade": 1,
        "tipo": 16,
        "regiao": null,
        "nome": "LÍRIOS DO CAMPO II",
        "endereco": "Rua Emílio de Menezes, 238 - Monte Castelo, São José dos Campos - SP, Brasil",
        "lat": "-23.18011713",
        "lng": "-45.87292120",
        "telefone": "39134361",
        "telefone2": " ",
        "email": null,
        "codigoCie": "195704"
    },
    {
        "id": 1852,
        "unidade": 1,
        "tipo": 16,
        "regiao": null,
        "nome": "LÍRIOS DO CAMPO IV",
        "endereco": "Rua Avião Tangará, 220  - Jardim Souto, São José dos Campos - SP, Brasil",
        "lat": "-23.20031240",
        "lng": "-45.86005880",
        "telefone": "39118152",
        "telefone2": " ",
        "email": null,
        "codigoCie": "65304"
    },
    {
        "id": 1853,
        "unidade": 1,
        "tipo": 16,
        "regiao": null,
        "nome": "LÍRIOS DO CAMPO V",
        "endereco": "Avenida São Cristóvão, 500  - Jardim São Judas Tadeu, São José dos Campos - SP, Brasil",
        "lat": "-23.25721038",
        "lng": "-45.83181748",
        "telefone": "39446571",
        "telefone2": " ",
        "email": null,
        "codigoCie": "64956"
    },
    {
        "id": 1854,
        "unidade": 1,
        "tipo": 16,
        "regiao": null,
        "nome": "LAR ESCOLA MÃE MARIQUINHA",
        "endereco": "Estrada Munic. José Benedito de Oliveira, 1915 - fdos  - Bairro dos Freitas, São José dos Campos - SP, Brasil",
        "lat": "-23.10869525",
        "lng": "-45.93382587",
        "telefone": "39481100",
        "telefone2": " ",
        "email": null,
        "codigoCie": "84086"
    },
    {
        "id": 1855,
        "unidade": 1,
        "tipo": 16,
        "regiao": null,
        "nome": "MEIMEI",
        "endereco": "Rua Franca, 145  - Bosque dos Eucaliptos, São José dos Campos - SP, Brasil",
        "lat": "-23.25411166",
        "lng": "-45.89042553",
        "telefone": "39362393",
        "telefone2": " ",
        "email": null,
        "codigoCie": "65250"
    },
    {
        "id": 1856,
        "unidade": 1,
        "tipo": 16,
        "regiao": null,
        "nome": "MEU SEGUNDO LAR",
        "endereco": "Rua Clementino Rodrigues Simões, 1305 1315   - Residencial Galo Branco, São José dos Campos - SP, Brasil",
        "lat": "-23.13968856",
        "lng": "-45.77797565",
        "telefone": "30286381",
        "telefone2": " ",
        "email": null,
        "codigoCie": "808908"
    },
    {
        "id": 1857,
        "unidade": 1,
        "tipo": 16,
        "regiao": null,
        "nome": "NOSSA SENHORA APARECIDA",
        "endereco": "Rua Sebastião Humel, 780  - Centro, São José dos Campos - SP, Brasil",
        "lat": "-23.18026040",
        "lng": "-45.88070197",
        "telefone": "39212708",
        "telefone2": " ",
        "email": null,
        "codigoCie": "802992"
    },
    {
        "id": 1858,
        "unidade": 1,
        "tipo": 16,
        "regiao": null,
        "nome": "NOSSA SENHORA AUXILIADORA",
        "endereco": "Rua Renato Alves da Cunha, 290   - Jardim Pôr do Sol, São José dos Campos - SP, Brasil",
        "lat": "-23.24116280",
        "lng": "-45.93244039",
        "telefone": "39316686",
        "telefone2": " ",
        "email": null,
        "codigoCie": "64968"
    },
    {
        "id": 1859,
        "unidade": 1,
        "tipo": 16,
        "regiao": null,
        "nome": "ROSÁLIA JOANA SCHEID",
        "endereco": "Rua Batatais, 13 - Bosque dos Eucaliptos, São José dos Campos - SP, Brasil",
        "lat": "-23.25494208",
        "lng": "-45.88847851",
        "telefone": "39362177",
        "telefone2": " ",
        "email": null,
        "codigoCie": "307579"
    },
    {
        "id": 1860,
        "unidade": 1,
        "tipo": 16,
        "regiao": null,
        "nome": "SANTA RITA",
        "endereco": "Rua Serra Dourada, 135   - Jardim Altos de Santana, São José dos Campos - SP, Brasil",
        "lat": "-23.16510872",
        "lng": "-45.91016037",
        "telefone": "39116549",
        "telefone2": " ",
        "email": null,
        "codigoCie": "61979"
    },
    {
        "id": 1861,
        "unidade": 1,
        "tipo": 16,
        "regiao": null,
        "nome": "VÓ MARIA FÉLIX",
        "endereco": "Rua Carlos Nunes de Paula, 1172   - Jardim Imperial, São José dos Campos - SP, Brasil",
        "lat": "-23.27674867",
        "lng": "-45.89994708",
        "telefone": "39662823",
        "telefone2": " ",
        "email": null,
        "codigoCie": "807953"
    },
    {
        "id": 1862,
        "unidade": 1,
        "tipo": 14,
        "regiao": null,
        "nome": "PROF. ÁLVARO GONÇALVES",
        "endereco": "Rua Albertina Pereira Lima, 151 - Campo dos Alemães, São José dos Campos - SP, Brasil",
        "lat": "-23.26996182",
        "lng": "-45.89172420",
        "telefone": "39661278",
        "telefone2": "39662298",
        "email": null,
        "codigoCie": "241982"
    },
    {
        "id": 1863,
        "unidade": 1,
        "tipo": 14,
        "regiao": null,
        "nome": "PROF. ANA BERLING MACEDO",
        "endereco": "Rua Alziro Lebrão, 318 - Alto da Ponte, São José dos Campos - SP, Brasil",
        "lat": "-23.15147837",
        "lng": "-45.89989140",
        "telefone": "39216839",
        "telefone2": "39428470",
        "email": null,
        "codigoCie": "56790"
    },
    {
        "id": 1864,
        "unidade": 1,
        "tipo": 14,
        "regiao": null,
        "nome": "PROF. ANTÔNIO PALMA SOBRINHO",
        "endereco": "Rua Angelo Scarpel, 163 - Parque Nova Esperança, São José dos Campos - SP, Brasil",
        "lat": "-23.20111210",
        "lng": "-45.78446153",
        "telefone": "39071124",
        "telefone2": "39073939",
        "email": null,
        "codigoCie": "78153"
    },
    {
        "id": 1865,
        "unidade": 1,
        "tipo": 14,
        "regiao": null,
        "nome": "PROF. ÁUREA CANTINHO RODRIGUES",
        "endereco": "Rua Iran, 135 - Jardim Oswaldo Cruz, São José dos Campos - SP, Brasil",
        "lat": "-23.20063048",
        "lng": "-45.88281113",
        "telefone": "39218765",
        "telefone2": "39428011",
        "email": null,
        "codigoCie": "56820"
    },
    {
        "id": 1866,
        "unidade": 1,
        "tipo": 14,
        "regiao": null,
        "nome": "PROF. DOSULINA CHENQUE CHAVES DE ANDRADE",
        "endereco": "Avenida Pico das Agulhas Negras, 1594 - Jardim Altos de Santana, São José dos Campos - SP, Brasil",
        "lat": "-23.15959143",
        "lng": "-45.91557329",
        "telefone": "39216448",
        "telefone2": " ",
        "email": null,
        "codigoCie": "227900"
    },
    {
        "id": 1867,
        "unidade": 1,
        "tipo": 14,
        "regiao": null,
        "nome": "PROF. ELIZABETE DE PAULA HONORATO",
        "endereco": "Rua Aurélio Portilho Castellanos, 124 - Jardim Mariana I, São José dos Campos - SP, Brasil",
        "lat": "-23.21337133",
        "lng": "-45.80272163",
        "telefone": "39128666",
        "telefone2": "39129467",
        "email": null,
        "codigoCie": "281670"
    },
    {
        "id": 1868,
        "unidade": 1,
        "tipo": 14,
        "regiao": null,
        "nome": "PROF. ELZA REGINA FERREIRA BEVILACQUA",
        "endereco": "Rua Breno de Moura, s n - Jardim Estoril, São José dos Campos - SP, Brasil",
        "lat": "-23.25023137",
        "lng": "-45.88367369",
        "telefone": "39167020",
        "telefone2": "39166420",
        "email": null,
        "codigoCie": "90050"
    },
    {
        "id": 1869,
        "unidade": 1,
        "tipo": 14,
        "regiao": null,
        "nome": "EMMANUEL ANTÔNIO DOS SANTOS",
        "endereco": "Rua das Cerejas, 150 - Residencial Frei Galvão, São José dos Campos - SP, Brasil",
        "lat": "-23.16860580",
        "lng": "-45.78936448",
        "telefone": "39298970",
        "telefone2": "39121932",
        "email": null,
        "codigoCie": "581297"
    },
    {
        "id": 1870,
        "unidade": 1,
        "tipo": 14,
        "regiao": null,
        "nome": "PROF. GERALDO DE ALMEIDA",
        "endereco": "Rua Camomila, 100 - Chácara Pousada do Vale, São José dos Campos - SP, Brasil",
        "lat": "-23.22194803",
        "lng": "-45.79356479",
        "telefone": "39292545",
        "telefone2": "39264566",
        "email": null,
        "codigoCie": "227912"
    },
    {
        "id": 1871,
        "unidade": 1,
        "tipo": 14,
        "regiao": null,
        "nome": "PROF. HÉLIO AUGUSTO DE SOUZA",
        "endereco": "Praça dos Músicos, s n - Jardim Valparaíba, São José dos Campos - SP, Brasil",
        "lat": "-23.17465400",
        "lng": "-45.84163700",
        "telefone": "39295996",
        "telefone2": "39125436",
        "email": null,
        "codigoCie": "96672"
    },
    {
        "id": 1872,
        "unidade": 1,
        "tipo": 14,
        "regiao": null,
        "nome": "PROF. HÉLIO WALTER BEVILACQUA",
        "endereco": "Rua Oscar Ferreira da Silva, 155 - Jardim República, São José dos Campos - SP, Brasil",
        "lat": "-23.28938256",
        "lng": "-45.89808947",
        "telefone": "39392310",
        "telefone2": "39372065",
        "email": null,
        "codigoCie": "495300"
    },
    {
        "id": 1873,
        "unidade": 1,
        "tipo": 14,
        "regiao": null,
        "nome": "PROF. HOMERA DA SILVA BRAGA",
        "endereco": "Rua Joaquim de Paula, 670 - Cidade Morumbi, São José dos Campos - SP, Brasil",
        "lat": "-23.25107322",
        "lng": "-45.90014262",
        "telefone": "39379166",
        "telefone2": "39379329",
        "email": null,
        "codigoCie": "359981"
    },
    {
        "id": 1874,
        "unidade": 1,
        "tipo": 14,
        "regiao": null,
        "nome": "PROF. ILDETE MENDONÇA BARBOSA",
        "endereco": "Rua Doutor Miguel Jansen Filho, 80 - Parque Residencial União, São José dos Campos - SP, Brasil",
        "lat": "-23.26415682",
        "lng": "-45.90502152",
        "telefone": "39661688",
        "telefone2": "39661026",
        "email": null,
        "codigoCie": "241994"
    },
    {
        "id": 1875,
        "unidade": 1,
        "tipo": 14,
        "regiao": null,
        "nome": "PROF. ILGA PUSPLATAIS",
        "endereco": "Rua Uberlândia, 465 - Jardim Ismênia, São José dos Campos - SP, Brasil",
        "lat": "-23.17559306",
        "lng": "-45.84776302",
        "telefone": "39023695",
        "telefone2": " ",
        "email": null,
        "codigoCie": "436999"
    },
    {
        "id": 1876,
        "unidade": 1,
        "tipo": 14,
        "regiao": null,
        "nome": "PROF. JACYRA VIEIRA BARACHO",
        "endereco": "Rua Florença, 100 - Jardim Veneza, São José dos Campos - SP, Brasil",
        "lat": "-23.24346563",
        "lng": "-45.91042793",
        "telefone": "39330650",
        "telefone2": " ",
        "email": null,
        "codigoCie": "90136"
    },
    {
        "id": 1877,
        "unidade": 1,
        "tipo": 14,
        "regiao": null,
        "nome": "PROF. LEONOR PEREIRA NUNES GALVÃO",
        "endereco": "Rua José Molina, 150 - Vila Industrial, São José dos Campos - SP, Brasil",
        "lat": "-23.17965921",
        "lng": "-45.85871746",
        "telefone": "39291714",
        "telefone2": "39121750",
        "email": null,
        "codigoCie": "69085"
    },
    {
        "id": 1878,
        "unidade": 1,
        "tipo": 14,
        "regiao": null,
        "nome": "PROF. LÚCIA PEREIRA RODRIGUES",
        "endereco": "Praça IV Centenário, 401 - Jardim Santa Fé, São José dos Campos - SP, Brasil",
        "lat": "-23.24900741",
        "lng": "-45.83355026",
        "telefone": "39441769",
        "telefone2": "39441850",
        "email": null,
        "codigoCie": "92265"
    },
    {
        "id": 1879,
        "unidade": 1,
        "tipo": 14,
        "regiao": null,
        "nome": "PROF. LUIZ LEITE",
        "endereco": "Rua Benedito Andrade, 5 - Residencial Galo Branco, São José dos Campos - SP, Brasil",
        "lat": "-23.13158453",
        "lng": "-45.76581150",
        "telefone": "39052510",
        "telefone2": "39051139",
        "email": null,
        "codigoCie": "271287"
    },
    {
        "id": 1880,
        "unidade": 1,
        "tipo": 14,
        "regiao": null,
        "nome": "PROF. LUZIA LEVINA APARECIDA BORGES",
        "endereco": "Rua Honorato Gonçalves Teixeira, 205 - Jardim Cruzeiro do Sul, São José dos Campos - SP, Brasil",
        "lat": "-23.28681337",
        "lng": "-45.89110091",
        "telefone": "39661569",
        "telefone2": "39291585",
        "email": null,
        "codigoCie": "242007"
    },
    {
        "id": 1881,
        "unidade": 1,
        "tipo": 14,
        "regiao": null,
        "nome": "PROF. MARIA AMÉLIA WAKAMATSU",
        "endereco": "Rua Virgílio Fernandes de Oliveira, 31 - Campos de São José, São José dos Campos - SP, Brasil",
        "lat": "-23.21102218",
        "lng": "-45.81084060",
        "telefone": "39297535",
        "telefone2": "39124775",
        "email": null,
        "codigoCie": "74925"
    },
    {
        "id": 1882,
        "unidade": 1,
        "tipo": 14,
        "regiao": null,
        "nome": "PROF. MARIA ANTONIETA FERREIRA PAYAR",
        "endereco": "Avenida Três, s n - Pinheirinho dos Palmares, São José dos Campos - SP, Brasil",
        "lat": "-23.25323927",
        "lng": "-45.80243552",
        "telefone": "39122739",
        "telefone2": "39431124",
        "email": null,
        "codigoCie": "4243"
    },
    {
        "id": 1883,
        "unidade": 1,
        "tipo": 14,
        "regiao": null,
        "nome": "PROF. MARIA APARECIDA SANTOS RONCONI",
        "endereco": "Rua Ana Gonçalves da Cunha, 400 - Jardim Jussara, São José dos Campos - SP, Brasil",
        "lat": "-23.18744080",
        "lng": "-45.86873287",
        "telefone": "39114549",
        "telefone2": "39116663",
        "email": null,
        "codigoCie": "436987"
    },
    {
        "id": 1884,
        "unidade": 1,
        "tipo": 14,
        "regiao": null,
        "nome": "PROF. MARIA AUGUSTA MOREIRA DA COSTA",
        "endereco": "Rua dos Canindés, s n  - Jardim Uirá, São José dos Campos - SP, Brasil",
        "lat": "-23.21188500",
        "lng": "-45.85366800",
        "telefone": "39118948",
        "telefone2": "39118702",
        "email": null,
        "codigoCie": "447535"
    },
    {
        "id": 1885,
        "unidade": 1,
        "tipo": 14,
        "regiao": null,
        "nome": "PROF. MARIA DE MELO",
        "endereco": "Rua Ingá, 40 - Parque Industrial, São José dos Campos - SP, Brasil",
        "lat": "-23.24020538",
        "lng": "-45.90704578",
        "telefone": "39313593",
        "telefone2": " ",
        "email": null,
        "codigoCie": "56844"
    },
    {
        "id": 1886,
        "unidade": 1,
        "tipo": 14,
        "regiao": null,
        "nome": "PROF. MARIA NAZARETH DE MOURA VERONESE",
        "endereco": "Praça Columba, 45 - Jardim da Granja, São José dos Campos - SP, Brasil",
        "lat": "-23.20606299",
        "lng": "-45.85324293",
        "telefone": "39213424",
        "telefone2": "39424341",
        "email": null,
        "codigoCie": "56807"
    },
    {
        "id": 1887,
        "unidade": 1,
        "tipo": 14,
        "regiao": null,
        "nome": "PROF. MARIA OFÉLIA VENEZIANI PEDROSA",
        "endereco": "Rua Sérgio Gonzaga Azevedo, 130 - Jardim Por do Sol, São José dos Campos - SP, Brasil",
        "lat": "-23.24111301",
        "lng": "-45.93381966",
        "telefone": "39330408",
        "telefone2": "39349019",
        "email": null,
        "codigoCie": "62480"
    },
    {
        "id": 1888,
        "unidade": 1,
        "tipo": 14,
        "regiao": null,
        "nome": "PROF. MARIANA TEIXEIRA CORNÉLIO",
        "endereco": "Rua Benedito Pereira Lima, 200 - Jardim Telespark, São José dos Campos - SP, Brasil",
        "lat": "-23.15975613",
        "lng": "-45.90947423",
        "telefone": "39133600",
        "telefone2": "39133601",
        "email": null,
        "codigoCie": "271457"
    },
    {
        "id": 1889,
        "unidade": 1,
        "tipo": 14,
        "regiao": null,
        "nome": "PROF. MARTHA ABIB CASTANHO",
        "endereco": "Rua Leblon, 60 - Jardim Satélite, São José dos Campos - SP, Brasil",
        "lat": "-23.22363888",
        "lng": "-45.88256528",
        "telefone": "39333008",
        "telefone2": "39336355",
        "email": null,
        "codigoCie": "463814"
    },
    {
        "id": 1890,
        "unidade": 1,
        "tipo": 14,
        "regiao": null,
        "nome": "PROF. MERCEDES CARNEVALLI KLEIN",
        "endereco": "Rua Itapoã, 350 - Jardim Satélite, São José dos Campos - SP, Brasil",
        "lat": "-23.22940565",
        "lng": "-45.88767029",
        "telefone": "39311404",
        "telefone2": "39335673",
        "email": null,
        "codigoCie": "56832"
    },
    {
        "id": 1891,
        "unidade": 1,
        "tipo": 14,
        "regiao": null,
        "nome": "PROF. MERCEDES MARIA PEROTTI",
        "endereco": "Rua São Francisco, 181 - Rio Comprido, São José dos Campos - SP, Brasil",
        "lat": "-23.25622259",
        "lng": "-45.94125481",
        "telefone": "39311428",
        "telefone2": "39316421",
        "email": null,
        "codigoCie": "447547"
    },
    {
        "id": 1892,
        "unidade": 1,
        "tipo": 14,
        "regiao": null,
        "nome": "MERCEDES RACHID EDWARDS",
        "endereco": "Estrada Municipal Vereador Pedro David, 19251 - São Francisco Xavier, São José dos Campos - SP, Brasil",
        "lat": "-22.91031615",
        "lng": "-45.95226308",
        "telefone": "39261634",
        "telefone2": "39261874",
        "email": null,
        "codigoCie": "281700"
    },
    {
        "id": 1893,
        "unidade": 1,
        "tipo": 14,
        "regiao": null,
        "nome": "PROF. MOACYR BENEDICTO DE SOUZA",
        "endereco": "Rua Maria Martins Ottoboni, 100 - Campo dos Alemães, São José dos Campos - SP, Brasil",
        "lat": "-23.27277416",
        "lng": "-45.89585079",
        "telefone": "39661829",
        "telefone2": "39661100",
        "email": null,
        "codigoCie": "92241"
    },
    {
        "id": 1894,
        "unidade": 1,
        "tipo": 14,
        "regiao": null,
        "nome": "PROF. NORMA DE CONTI SIMÃO",
        "endereco": "Rua João Adão, 349 - Bosque dos Ipês, São José dos Campos - SP, Brasil",
        "lat": "-23.26271274",
        "lng": "-45.89815643",
        "telefone": "39371818",
        "telefone2": "39372828",
        "email": null,
        "codigoCie": "281694"
    },
    {
        "id": 1895,
        "unidade": 1,
        "tipo": 14,
        "regiao": null,
        "nome": "PROF. OTACÍLIA MADUREIRA DE MOURA",
        "endereco": "Praça Quiririm, 101 - Vila Nova Conceição, São José dos Campos - SP, Brasil",
        "lat": "-23.21022609",
        "lng": "-45.88611900",
        "telefone": "39215655",
        "telefone2": "39424780",
        "email": null,
        "codigoCie": "56789"
    },
    {
        "id": 1896,
        "unidade": 1,
        "tipo": 14,
        "regiao": null,
        "nome": "PROF. PALMYRA SANT ANNA",
        "endereco": "Avenida Presidente Juscelino Kubitschek de Oliveira, 6907 - Vila Industrial, São José dos Campos - SP, Brasil",
        "lat": "-23.18341715",
        "lng": "-45.85896761",
        "telefone": "39292089",
        "telefone2": "39125510",
        "email": null,
        "codigoCie": "56777"
    },
    {
        "id": 1897,
        "unidade": 1,
        "tipo": 14,
        "regiao": null,
        "nome": "DOM PEDRO DE ALCÂNTARA",
        "endereco": "Avenida Adilson José da Cruz, 7581 - Conjunto Habitacional Dom Pedro I, São José dos Campos - SP, Brasil",
        "lat": "-23.28026429",
        "lng": "-45.88721081",
        "telefone": "39661964",
        "telefone2": "39661601",
        "email": null,
        "codigoCie": "62492"
    },
    {
        "id": 1898,
        "unidade": 1,
        "tipo": 14,
        "regiao": null,
        "nome": "POSSIDÔNIO JOSÉ DE FREITAS",
        "endereco": "Rua Felício Jabbur Nasser, 935 - Residencial Galo Branco, São José dos Campos - SP, Brasil",
        "lat": "-23.13653038",
        "lng": "-45.77496198",
        "telefone": "39051911",
        "telefone2": "39053030",
        "email": null,
        "codigoCie": "69097"
    },
    {
        "id": 1899,
        "unidade": 1,
        "tipo": 14,
        "regiao": null,
        "nome": "PROF. POSSIDÔNIO SALLES",
        "endereco": "Rua Benedito Eras, s n  - Jardim Americano, São José dos Campos - SP, Brasil",
        "lat": "-23.17967358",
        "lng": "-45.81263278",
        "telefone": "39027392",
        "telefone2": "39027397",
        "email": null,
        "codigoCie": "463826"
    },
    {
        "id": 1900,
        "unidade": 1,
        "tipo": 14,
        "regiao": null,
        "nome": "PROF. ROSA TOMITA",
        "endereco": "Rua Ayrton Senna da Silva, 90 - Jardim São José II, São José dos Campos - SP, Brasil",
        "lat": "-23.17058511",
        "lng": "-45.77860162",
        "telefone": "39292995",
        "telefone2": "39293442",
        "email": null,
        "codigoCie": "84621"
    },
    {
        "id": 1901,
        "unidade": 1,
        "tipo": 14,
        "regiao": null,
        "nome": "PROF. RUTH NUNES DA TRINDADE",
        "endereco": "Rua Waldemar Teixeira, 900 - Parque Interlagos, São José dos Campos - SP, Brasil",
        "lat": "-23.27200677",
        "lng": "-45.86241913",
        "telefone": "39441030",
        "telefone2": " ",
        "email": null,
        "codigoCie": "271299"
    },
    {
        "id": 1902,
        "unidade": 1,
        "tipo": 14,
        "regiao": null,
        "nome": "PROF. SEBASTIANA COBRA",
        "endereco": "Rua dos Amores-Perfeitos, 95 - Jardim das Indústrias, São José dos Campos - SP, Brasil",
        "lat": "-23.22895137",
        "lng": "-45.91881520",
        "telefone": "39311814",
        "telefone2": "39345393",
        "email": null,
        "codigoCie": "56819"
    },
    {
        "id": 1903,
        "unidade": 1,
        "tipo": 14,
        "regiao": null,
        "nome": "PROF SILVANA MARIA RIBEIRO DE ALMEIDA",
        "endereco": "Rua Quatro de Março, 10 - Jardim Cerejeiras, São José dos Campos - SP, Brasil",
        "lat": "-23.19413463",
        "lng": "-45.79314478",
        "telefone": "39075772",
        "telefone2": " ",
        "email": null,
        "codigoCie": "281682"
    },
    {
        "id": 1904,
        "unidade": 1,
        "tipo": 14,
        "regiao": null,
        "nome": "PROF. SÔNIA MARIA PEREIRA DA SILVA",
        "endereco": "Rua dos Alfaiates, 321 - Parque Novo Horizonte, São José dos Campos - SP, Brasil",
        "lat": "-23.19831148",
        "lng": "-45.78231462",
        "telefone": "39074020",
        "telefone2": "39073355",
        "email": null,
        "codigoCie": "271305"
    },
    {
        "id": 1905,
        "unidade": 1,
        "tipo": 14,
        "regiao": null,
        "nome": "PROF. THEREZINHA DO MENINO JESUS SOARES DO NASCIMENTO",
        "endereco": "Rua Francisco Carlos Barbosa, 200 - Conjunto Habitacional Dom Pedro I, São José dos Campos - SP, Brasil",
        "lat": "-23.28212598",
        "lng": "-45.89181227",
        "telefone": "39661582",
        "telefone2": "39661028",
        "email": null,
        "codigoCie": "70476"
    },
    {
        "id": 1906,
        "unidade": 1,
        "tipo": 14,
        "regiao": null,
        "nome": "PROF. VERA BABO DE OLIVEIRA",
        "endereco": "Avenida Alto do Rio Doce, 801 - Jardim Altos de Santana, São José dos Campos - SP, Brasil",
        "lat": "-23.16900370",
        "lng": "-45.91237522",
        "telefone": "39215748",
        "telefone2": "39424478",
        "email": null,
        "codigoCie": "69048"
    },
    {
        "id": 1907,
        "unidade": 1,
        "tipo": 14,
        "regiao": null,
        "nome": "PROF. VERA LÚCIA CARNEVALLI BARRETO",
        "endereco": "Avenida Olivo Gomes, 520 - Santana, São José dos Campos - SP, Brasil",
        "lat": "-23.16781419",
        "lng": "-45.89155696",
        "telefone": "39216258",
        "telefone2": "39422780",
        "email": null,
        "codigoCie": "86022"
    },
    {
        "id": 1908,
        "unidade": 1,
        "tipo": 14,
        "regiao": null,
        "nome": "PROF. WALDEMAR RAMOS",
        "endereco": "Rua México, 84 - Vista Verde, São José dos Campos - SP, Brasil",
        "lat": "-23.18232478",
        "lng": "-45.83124956",
        "telefone": "39296319",
        "telefone2": "39125840",
        "email": null,
        "codigoCie": "56765"
    },
    {
        "id": 1909,
        "unidade": 1,
        "tipo": 12,
        "regiao": null,
        "nome": "PROF. ANA LÚCIA DE CASTRO MICHELETO",
        "endereco": "Rua Patativa, 200 - Vila Tatetuba, São José dos Campos - SP, Brasil",
        "lat": "-23.18618674",
        "lng": "-45.85700320",
        "telefone": "39296843",
        "telefone2": " ",
        "email": null,
        "codigoCie": "89624"
    },
    {
        "id": 1910,
        "unidade": 1,
        "tipo": 12,
        "regiao": null,
        "nome": "PROF. ÂNGELA DE CASTRO FERNANDES LOPES",
        "endereco": "Rua Turiaçu, 792 - Parque Industrial, São José dos Campos - SP, Brasil",
        "lat": "-23.23754770",
        "lng": "-45.90615254",
        "telefone": "39318518",
        "telefone2": " ",
        "email": null,
        "codigoCie": "85170"
    },
    {
        "id": 1911,
        "unidade": 1,
        "tipo": 12,
        "regiao": null,
        "nome": "PROF. ARLINDO CAETANO FILHO",
        "endereco": "Rua Valdemir de Oliveira, 42 - Conjunto Residencial 31 de março, São José dos Campos - SP, Brasil",
        "lat": "-23.24848578",
        "lng": "-45.91437046",
        "telefone": "39311684",
        "telefone2": " ",
        "email": null,
        "codigoCie": "89618"
    },
    {
        "id": 1912,
        "unidade": 1,
        "tipo": 12,
        "regiao": null,
        "nome": "ARTUR APARECIDO DA ROSA",
        "endereco": "Avenida São Vicente de Paulo, s n - São Judas Tadeu, São José dos Campos - SP, Brasil",
        "lat": "-23.25578306",
        "lng": "-45.83648781",
        "telefone": "39441765",
        "telefone2": " ",
        "email": null,
        "codigoCie": "233304"
    },
    {
        "id": 1913,
        "unidade": 1,
        "tipo": 12,
        "regiao": null,
        "nome": "CASSIANO RICARDO",
        "endereco": "Rua Engenheiro Prudente Meireles de Morais, 1000 - Vila Adyana, São José dos Campos - SP, Brasil",
        "lat": "-23.20091035",
        "lng": "-45.89192084",
        "telefone": "39211117",
        "telefone2": " ",
        "email": null,
        "codigoCie": "82995"
    },
    {
        "id": 1914,
        "unidade": 1,
        "tipo": 12,
        "regiao": null,
        "nome": "PROF. CLEANIR SANTOS MALDONADO CAMPOY",
        "endereco": "Rua Noruega, 726 - Jardim Aeroporto   Vila Letônia, São José dos Campos - SP, Brasil",
        "lat": "-23.21423896",
        "lng": "-45.88327397",
        "telefone": "39229394",
        "telefone2": " ",
        "email": null,
        "codigoCie": "89606"
    },
    {
        "id": 1915,
        "unidade": 1,
        "tipo": 12,
        "regiao": null,
        "nome": "PROF. CREMILDA ALVES DE OLIVEIRA AZEVEDO",
        "endereco": "Rua Durvalina Isaura Conceição dos Santos, 242 - Vila Cristina, São José dos Campos - SP, Brasil",
        "lat": "-23.15804956",
        "lng": "-45.89048571",
        "telefone": "39423139",
        "telefone2": " ",
        "email": null,
        "codigoCie": "89631"
    },
    {
        "id": 1916,
        "unidade": 1,
        "tipo": 12,
        "regiao": null,
        "nome": "PROF. DENISE PRATES FERNANDES ROCHA",
        "endereco": "Rua Nova Pádua, 209 - Vila Monterrey, São José dos Campos - SP, Brasil",
        "lat": "-23.22697915",
        "lng": "-45.79398989",
        "telefone": "39122523",
        "telefone2": " ",
        "email": null,
        "codigoCie": "4638"
    },
    {
        "id": 1917,
        "unidade": 1,
        "tipo": 12,
        "regiao": null,
        "nome": "PROF. DOMINGOS DE MACEDO CUSTÓDIO",
        "endereco": "Rua Doutor José de Moura Resende, 372 - Vila Tesouro, São José dos Campos - SP, Brasil",
        "lat": "-23.16948424",
        "lng": "-45.83957575",
        "telefone": "39292325",
        "telefone2": " ",
        "email": null,
        "codigoCie": "96600"
    },
    {
        "id": 1918,
        "unidade": 1,
        "tipo": 12,
        "regiao": null,
        "nome": "PROF. ÉDERA IRENE PEREIRA DE OLIVEIRA CARDOSO",
        "endereco": "Rua Professor Luis Antonio Ribeiro de Macedo, 330 - Jardim Paraiso do Sol, São José dos Campos - SP, Brasil",
        "lat": "-23.18306834",
        "lng": "-45.79763176",
        "telefone": "39071481",
        "telefone2": " ",
        "email": null,
        "codigoCie": "347607"
    },
    {
        "id": 1919,
        "unidade": 1,
        "tipo": 12,
        "regiao": null,
        "nome": "PROF. ELZA FERREIRA RAHAL",
        "endereco": "Rua Paraná, 111 - Vila Maria, São José dos Campos - SP, Brasil",
        "lat": "-23.17715071",
        "lng": "-45.88098354",
        "telefone": "39091073",
        "telefone2": " ",
        "email": null,
        "codigoCie": "89597"
    },
    {
        "id": 1920,
        "unidade": 1,
        "tipo": 12,
        "regiao": null,
        "nome": "FEBRÔNIO PEREIRA GOMES",
        "endereco": "Rua dos Carteiros, 50 - Parque Novo Horizonte, São José dos Campos - SP, Brasil",
        "lat": "-23.19382997",
        "lng": "-45.78498677",
        "telefone": "39071439",
        "telefone2": " ",
        "email": null,
        "codigoCie": "90049"
    },
    {
        "id": 1921,
        "unidade": 1,
        "tipo": 12,
        "regiao": null,
        "nome": "PROF. IDELENA MENEZES TREFÍLIO DE CARVALHO",
        "endereco": "Avenida Olivo Gomes, 590 - Santana, São José dos Campos - SP, Brasil",
        "lat": "-23.16846786",
        "lng": "-45.89159894",
        "telefone": "39215770",
        "telefone2": " ",
        "email": null,
        "codigoCie": "89588"
    },
    {
        "id": 1922,
        "unidade": 1,
        "tipo": 12,
        "regiao": null,
        "nome": "IRACEMA OLIVEIRA DE MELLO",
        "endereco": "Rua Roberto Aparecido Cruz, 60 - Jardim Santo Onofre, São José dos Campos - SP, Brasil",
        "lat": "-23.24859324",
        "lng": "-45.83261442",
        "telefone": "39442328",
        "telefone2": " ",
        "email": null,
        "codigoCie": "92253"
    },
    {
        "id": 1923,
        "unidade": 1,
        "tipo": 12,
        "regiao": null,
        "nome": "PROF. JANE PALUMBO",
        "endereco": "Rua Edilson Sabino dos Santos, s n - Conjunto Habitacional Dom Pedro I, São José dos Campos - SP, Brasil",
        "lat": "-23.27674324",
        "lng": "-45.88794442",
        "telefone": "39668339",
        "telefone2": " ",
        "email": null,
        "codigoCie": "347590"
    },
    {
        "id": 1924,
        "unidade": 1,
        "tipo": 12,
        "regiao": null,
        "nome": "DO JARDIM MORUMBI",
        "endereco": "Avenida Elísio Galdino Sobrinho, 40 - Cidade Morumbi, São José dos Campos - SP, Brasil",
        "lat": "-23.24970327",
        "lng": "-45.90387918",
        "telefone": "39310002",
        "telefone2": " ",
        "email": null,
        "codigoCie": "90074"
    },
    {
        "id": 1925,
        "unidade": 1,
        "tipo": 12,
        "regiao": null,
        "nome": "PADRE JOÃO MARCONDES GUIMARÃES",
        "endereco": "Rua Tatuí, 27 - Bosque dos Eucaliptos, São José dos Campos - SP, Brasil",
        "lat": "-23.25839419",
        "lng": "-45.89177478",
        "telefone": "39165257",
        "telefone2": " ",
        "email": null,
        "codigoCie": "96684"
    },
    {
        "id": 1926,
        "unidade": 1,
        "tipo": 12,
        "regiao": null,
        "nome": "PROF. JOSÉ ANTERO CURSINO DOS SANTOS",
        "endereco": "Rua Itapoã, 101 - Jardim Satélite, São José dos Campos - SP, Brasil",
        "lat": "-23.23085105",
        "lng": "-45.88750085",
        "telefone": "39313718",
        "telefone2": " ",
        "email": null,
        "codigoCie": "90189"
    },
    {
        "id": 1927,
        "unidade": 1,
        "tipo": 12,
        "regiao": null,
        "nome": "JOSÉ MADUREIRA LEBRÃO",
        "endereco": "Rua Maurício Maldonado Júnior, 94 - Jardim Mariana II, São José dos Campos - SP, Brasil",
        "lat": "-23.21412139",
        "lng": "-45.80429276",
        "telefone": "39292322",
        "telefone2": " ",
        "email": null,
        "codigoCie": "306538"
    },
    {
        "id": 1928,
        "unidade": 1,
        "tipo": 12,
        "regiao": null,
        "nome": "JOSÉ PURCINI",
        "endereco": "Rua dos Cirurgiões Dentistas, 480 - Jardim Santa Inês II, São José dos Campos - SP, Brasil",
        "lat": "-23.16845168",
        "lng": "-45.80527309",
        "telefone": "39297402",
        "telefone2": " ",
        "email": null,
        "codigoCie": "94596"
    },
    {
        "id": 1929,
        "unidade": 1,
        "tipo": 12,
        "regiao": null,
        "nome": "PE. JOSÉ RUBENS FRANCO BONAFÉ",
        "endereco": "Rua Nossa Senhora da Salete, 34 - Vila Cândida, São José dos Campos - SP, Brasil",
        "lat": "-23.14049577",
        "lng": "-45.90290203",
        "telefone": "39219987",
        "telefone2": " ",
        "email": null,
        "codigoCie": "83012"
    },
    {
        "id": 1930,
        "unidade": 1,
        "tipo": 12,
        "regiao": null,
        "nome": "PROF. JOSÉ SODÉRO BITENCOURT",
        "endereco": "Rua José Antonio Monteiro Santos, 15 - Bosque dos Ipês, São José dos Campos - SP, Brasil",
        "lat": "-23.25659110",
        "lng": "-45.89840340",
        "telefone": "39394096",
        "telefone2": " ",
        "email": null,
        "codigoCie": "347620"
    },
    {
        "id": 1931,
        "unidade": 1,
        "tipo": 12,
        "regiao": null,
        "nome": "PROF. LADIEL BENEDITO DE CARVALHO",
        "endereco": "Rua Ana Benedicta Dias Pedrosa, 75 - Parque Interlagos, São José dos Campos - SP, Brasil",
        "lat": "-23.27347786",
        "lng": "-45.86444692",
        "telefone": "39441828",
        "telefone2": " ",
        "email": null,
        "codigoCie": "224662"
    },
    {
        "id": 1932,
        "unidade": 1,
        "tipo": 12,
        "regiao": null,
        "nome": "PROF. LOURDES DE OLIVEIRA MENDES",
        "endereco": "Rua Rio Una, 484 488 - Jardim Pararangaba, São José dos Campos - SP, Brasil",
        "lat": "-23.17376158",
        "lng": "-45.80701752",
        "telefone": "39028879",
        "telefone2": " ",
        "email": null,
        "codigoCie": "418365"
    },
    {
        "id": 1933,
        "unidade": 1,
        "tipo": 12,
        "regiao": null,
        "nome": "PROF. LÚCIA MARIA DO AMARAL",
        "endereco": "Rua José Benedito de Almeida Pena, 140 - Jardim Santa Luzia, São José dos Campos - SP, Brasil",
        "lat": "-23.23726850",
        "lng": "-45.83022194",
        "telefone": "39129819",
        "telefone2": " ",
        "email": null,
        "codigoCie": "497071"
    },
    {
        "id": 1934,
        "unidade": 1,
        "tipo": 12,
        "regiao": null,
        "nome": "PROF. LUIZ SUNDFELD",
        "endereco": "Rua Felício Jabbur Nasser, 1035 - Residencial Galo Branco, São José dos Campos - SP, Brasil",
        "lat": "-23.13662045",
        "lng": "-45.77598600",
        "telefone": "39052263",
        "telefone2": " ",
        "email": null,
        "codigoCie": "225150"
    },
    {
        "id": 1935,
        "unidade": 1,
        "tipo": 12,
        "regiao": null,
        "nome": "PROF. MARIA ALICE PASQUARELLI",
        "endereco": "Praça Joaquim Figueira de Andrade, 60 - Jardim Copacabana, São José dos Campos - SP, Brasil",
        "lat": "-23.17385771",
        "lng": "-45.84822099",
        "telefone": "39291854",
        "telefone2": " ",
        "email": null,
        "codigoCie": "96647"
    },
    {
        "id": 1936,
        "unidade": 1,
        "tipo": 12,
        "regiao": null,
        "nome": "PROF. MARIA APARECIDA CANDELÁRIA BERNARDES OTTOBONI",
        "endereco": "Avenida Rui Barbosa, 3613 - Alto da Ponte, São José dos Campos - SP, Brasil",
        "lat": "-23.15172529",
        "lng": "-45.90494333",
        "telefone": "39427704",
        "telefone2": " ",
        "email": null,
        "codigoCie": "4588"
    },
    {
        "id": 1937,
        "unidade": 1,
        "tipo": 12,
        "regiao": null,
        "nome": "PROF. MARIA DA GLÓRIA MARIANO SANTOS",
        "endereco": "Praça César Traballi, 80 - Jardim Telespark, São José dos Campos - SP, Brasil",
        "lat": "-23.16002759",
        "lng": "-45.90777845",
        "telefone": "39226002",
        "telefone2": " ",
        "email": null,
        "codigoCie": "92289"
    },
    {
        "id": 1938,
        "unidade": 1,
        "tipo": 12,
        "regiao": null,
        "nome": "PROF. MARIA EZEQUIEL SANT ANNA",
        "endereco": "Rua Castor, 180 - Jardim Satélite, São José dos Campos - SP, Brasil",
        "lat": "-23.22225181",
        "lng": "-45.89463728",
        "telefone": "39374618",
        "telefone2": " ",
        "email": null,
        "codigoCie": "85017"
    },
    {
        "id": 1939,
        "unidade": 1,
        "tipo": 12,
        "regiao": null,
        "nome": "PROF. MARIA JOSÉ GUIDO BROGLIATO FREIRE",
        "endereco": "Praça Bertolino Cláudio, 56 - Jardim Colonial, São José dos Campos - SP, Brasil",
        "lat": "-23.28041758",
        "lng": "-45.89524954",
        "telefone": "39662351",
        "telefone2": " ",
        "email": null,
        "codigoCie": "78037"
    },
    {
        "id": 1940,
        "unidade": 1,
        "tipo": 12,
        "regiao": null,
        "nome": "PROF. MARIA LEONOR DE CAMPOS MOTA MIRANDA",
        "endereco": "Rua Francisco das Chagas Filho, 21 - Jardim Sta Edwiges, São José dos Campos - SP, Brasil",
        "lat": "-23.29268483",
        "lng": "-45.89965375",
        "telefone": "39122973",
        "telefone2": " ",
        "email": null,
        "codigoCie": "4658"
    },
    {
        "id": 1941,
        "unidade": 1,
        "tipo": 12,
        "regiao": null,
        "nome": "PROF. MARILDA APARECIDA MONTEMÓR",
        "endereco": "Praça Victor Hugo, s n - Jardim Oriental, São José dos Campos - SP, Brasil",
        "lat": "-23.24095694",
        "lng": "-45.90053979",
        "telefone": "39341602",
        "telefone2": " ",
        "email": null,
        "codigoCie": "86009"
    },
    {
        "id": 1942,
        "unidade": 1,
        "tipo": 12,
        "regiao": null,
        "nome": "PROF. MÁRIO CAMPANER",
        "endereco": "Praça Flamboyant, 131 - Jardim das Indústrias, São José dos Campos - SP, Brasil",
        "lat": "-23.22905917",
        "lng": "-45.92394490",
        "telefone": "39315785",
        "telefone2": " ",
        "email": null,
        "codigoCie": "87497"
    },
    {
        "id": 1943,
        "unidade": 1,
        "tipo": 12,
        "regiao": null,
        "nome": "PROF. NORMA LÚCIA RODRIGUES DE ALMEIDA",
        "endereco": "Rua Flor de Lis, 133 - Conjunto Residencial Jardim das Flores, São José dos Campos - SP, Brasil",
        "lat": "-23.14625183",
        "lng": "-45.79678592",
        "telefone": "39052099",
        "telefone2": " ",
        "email": null,
        "codigoCie": "90177"
    },
    {
        "id": 1944,
        "unidade": 1,
        "tipo": 12,
        "regiao": null,
        "nome": "PROF. OLGA FRANCO CUSTÓDIO",
        "endereco": "Avenida das Rosas, 232 - Jardim Motorama, São José dos Campos - SP, Brasil",
        "lat": "-23.17565152",
        "lng": "-45.82565648",
        "telefone": "39296823",
        "telefone2": " ",
        "email": null,
        "codigoCie": "87476"
    },
    {
        "id": 1945,
        "unidade": 1,
        "tipo": 12,
        "regiao": null,
        "nome": "PROF. ROSANA SCARPEL DA SILVA",
        "endereco": "Avenida João de Oliveira e Silva, s n° - Campo dos Alemães, São José dos Campos - SP, Brasil",
        "lat": "-23.27470476",
        "lng": "-45.89968975",
        "telefone": "39661275",
        "telefone2": " ",
        "email": null,
        "codigoCie": "4390"
    },
    {
        "id": 1946,
        "unidade": 1,
        "tipo": 12,
        "regiao": null,
        "nome": "PROF. SANDRA REGINA DE ALMEIDA PAULO",
        "endereco": "Praça José Carlos Pace, 220 - Jardim Americano, São José dos Campos - SP, Brasil",
        "lat": "-23.18048230",
        "lng": "-45.81346988",
        "telefone": "39296773",
        "telefone2": " ",
        "email": null,
        "codigoCie": "94584"
    },
    {
        "id": 1947,
        "unidade": 1,
        "tipo": 12,
        "regiao": null,
        "nome": "TORATARO TAKITANI",
        "endereco": "Praça Bahia de São Salvador, 142  - Jardim Vale do Sol, São José dos Campos - SP, Brasil",
        "lat": "-23.25366190",
        "lng": "-45.91018588",
        "telefone": "39313382",
        "telefone2": " ",
        "email": null,
        "codigoCie": "86010"
    },
    {
        "id": 1948,
        "unidade": 1,
        "tipo": 12,
        "regiao": null,
        "nome": "PROF. VALÉRIA APARECIDA DE ALMEIDA VASCONCELOS",
        "endereco": "Estrada Arcílio Moreira da Silva, 191 - Residencial Gazzo, São José dos Campos - SP, Brasil",
        "lat": "-23.26330258",
        "lng": "-45.90075417",
        "telefone": "39318887",
        "telefone2": " ",
        "email": null,
        "codigoCie": "478350"
    },
    {
        "id": 1949,
        "unidade": 1,
        "tipo": 12,
        "regiao": null,
        "nome": "PROF. ZELI DE TOLEDO DIAS",
        "endereco": "Avenida das Curruíras, 160 - Jardim Uirá, São José dos Campos - SP, Brasil",
        "lat": "-23.21169115",
        "lng": "-45.85308853",
        "telefone": "39214527",
        "telefone2": " ",
        "email": null,
        "codigoCie": "91546"
    },
    {
        "id": 1950,
        "unidade": 1,
        "tipo": 12,
        "regiao": null,
        "nome": "PROF. ZENAIDE VILALVA DE ARAÚJO",
        "endereco": "Rua Eng Prudente Meireles de Morais, 1000 - Vila Adyana, São José dos Campos - SP, Brasil",
        "lat": "-23.20035821",
        "lng": "-45.89095170",
        "telefone": "39217439",
        "telefone2": " ",
        "email": null,
        "codigoCie": "56753"
    },
    {
        "id": 1951,
        "unidade": 1,
        "tipo": 12,
        "regiao": null,
        "nome": "PROF. ZILDA COSTA DE OLIVEIRA",
        "endereco": "Praça Hélio Dias, 137 - Parque Santa Rita, São José dos Campos - SP, Brasil",
        "lat": "-23.20421232",
        "lng": "-45.85387239",
        "telefone": "39225411",
        "telefone2": " ",
        "email": null,
        "codigoCie": "91510"
    },
    {
        "id": 1952,
        "unidade": 1,
        "tipo": 13,
        "regiao": 7,
        "nome": "ALADIR MAIA RIBEIRO GOMES",
        "endereco": "Rua Porto Novo, 45 - Jardim Satélite, São José dos Campos - SP, Brasil",
        "lat": "-23.22229433",
        "lng": "-45.88357680",
        "telefone": "39316902",
        "telefone2": " ",
        "email": "",
        "codigoCie": "90025"
    },
    {
        "id": 1953,
        "unidade": 1,
        "tipo": 13,
        "regiao": null,
        "nome": "DO ALTO DA PONTE 3",
        "endereco": "Rua Itararé, 116 - Vila Nossa Senhora das Graças   Alto da Ponte, São José dos Campos - SP, Brasil",
        "lat": "-23.15130899",
        "lng": "-45.90063026",
        "telefone": "39416097",
        "telefone2": " ",
        "email": "",
        "codigoCie": "92236"
    },
    {
        "id": 1954,
        "unidade": 1,
        "tipo": 13,
        "regiao": null,
        "nome": "PROF. ANA ISABEL BARBOSA",
        "endereco": "Rua Benedito de Oliveira e Silva, 115 - Buquirinha, São José dos Campos - SP, Brasil",
        "lat": "-23.11267968",
        "lng": "-45.91283340",
        "telefone": "39481313",
        "telefone2": " ",
        "email": null,
        "codigoCie": "62467"
    },
    {
        "id": 1955,
        "unidade": 1,
        "tipo": 13,
        "regiao": null,
        "nome": "BAIRRO DOS FREITAS",
        "endereco": "Estrada José Benedito de Oliveira, 1938 - Bairro dos Freitas, São José dos Campos - SP, Brasil",
        "lat": "-23.10966554",
        "lng": "-45.93406271",
        "telefone": "39482834",
        "telefone2": " ",
        "email": null,
        "codigoCie": "455301"
    },
    {
        "id": 1956,
        "unidade": 1,
        "tipo": 13,
        "regiao": null,
        "nome": "DOROTI DA SILVA CUNHA",
        "endereco": "Rua Abelardo Alves de Paiva, 300  - Jardim Santa Inês I, São José dos Campos - SP, Brasil",
        "lat": "-23.17363262",
        "lng": "-45.79607291",
        "telefone": "39291928",
        "telefone2": " ",
        "email": null,
        "codigoCie": "90153"
    },
    {
        "id": 1957,
        "unidade": 1,
        "tipo": 13,
        "regiao": null,
        "nome": "PROF. ELZA MARIA DIAS MENDONÇA",
        "endereco": "Praça Francisco Escobar, 103 - Monte Castelo, São José dos Campos - SP, Brasil",
        "lat": "-23.18434599",
        "lng": "-45.87499113",
        "telefone": "39235216",
        "telefone2": " ",
        "email": null,
        "codigoCie": "96611"
    },
    {
        "id": 1958,
        "unidade": 1,
        "tipo": 13,
        "regiao": null,
        "nome": "Prof. Fátima Aparecida Berthoud",
        "endereco": "Rua Eloy Porto, 120  - Eugênio de Melo, São José dos Campos - SP, Brasil",
        "lat": "-23.14046861",
        "lng": "-45.78437207",
        "telefone": "39052153",
        "telefone2": " ",
        "email": null,
        "codigoCie": "91534"
    },
    {
        "id": 1959,
        "unidade": 1,
        "tipo": 13,
        "regiao": null,
        "nome": "PROF. ILZA NASCIMENTO PINTUS",
        "endereco": "Rua Miracema, s n - Chácaras Reunidas, São José dos Campos - SP, Brasil",
        "lat": "-23.25537812",
        "lng": "-45.92392425",
        "telefone": "39343836",
        "telefone2": " ",
        "email": null,
        "codigoCie": "90128"
    },
    {
        "id": 1960,
        "unidade": 1,
        "tipo": 13,
        "regiao": null,
        "nome": "JOSÉ PAULINO BICUDO",
        "endereco": "Rua Javaés, s n - Vale dos Pinheiros, São José dos Campos - SP, Brasil",
        "lat": "-23.19527242",
        "lng": "-45.91138865",
        "telefone": "39415895",
        "telefone2": " ",
        "email": null,
        "codigoCie": "78025"
    },
    {
        "id": 1961,
        "unidade": 1,
        "tipo": 13,
        "regiao": null,
        "nome": "PROF. MARIA APARECIDA SAVASTANO SANCHEZ",
        "endereco": "Rua Treze de Maio, s n - São Francisco Xavier, São José dos Campos - SP, Brasil",
        "lat": "-22.90879656",
        "lng": "-45.96158077",
        "telefone": "39261665",
        "telefone2": " ",
        "email": null,
        "codigoCie": "78049"
    },
    {
        "id": 1962,
        "unidade": 1,
        "tipo": 13,
        "regiao": null,
        "nome": "PROF. MARIANITA DE OLIVEIRA PEREIRA SANTOS",
        "endereco": "Rua Viçosa, 5 - Bosque dos Eucaliptos, São José dos Campos - SP, Brasil",
        "lat": "-23.23988906",
        "lng": "-45.88579751",
        "telefone": "39361002",
        "telefone2": " ",
        "email": null,
        "codigoCie": "90104"
    },
    {
        "id": 1963,
        "unidade": 1,
        "tipo": 13,
        "regiao": null,
        "nome": "OSWALDO COPPIO",
        "endereco": "Rua Doutor Frediano Bianchi Filho, 151  - Jardim São José II, São José dos Campos - SP, Brasil",
        "lat": "-23.16958806",
        "lng": "-45.77783168",
        "telefone": "39291267",
        "telefone2": " ",
        "email": null,
        "codigoCie": "564624"
    },
    {
        "id": 1964,
        "unidade": 1,
        "tipo": 13,
        "regiao": null,
        "nome": "DO RIO COMPRIDO",
        "endereco": "Rua São Francisco ant rua 2, 181 - Rio Comprido, São José dos Campos - SP, Brasil",
        "lat": "-23.25632508",
        "lng": "-45.94136962",
        "telefone": "39393224",
        "telefone2": " ",
        "email": null,
        "codigoCie": "78013"
    },
    {
        "id": 1965,
        "unidade": 1,
        "tipo": 13,
        "regiao": null,
        "nome": "PROF. SILVIA HELENA DE SOUSA",
        "endereco": "Rua João José do Nascimento, 77 - Vila César, São José dos Campos - SP, Brasil",
        "lat": "-23.16158777",
        "lng": "-45.89094588",
        "telefone": "39235204",
        "telefone2": " ",
        "email": null,
        "codigoCie": "90098"
    },
    {
        "id": 1966,
        "unidade": 1,
        "tipo": 13,
        "regiao": null,
        "nome": "PROF. SÔNIA MARA RAMOS",
        "endereco": "Praça Paraíba, 119 - Vila São Pedro, São José dos Campos - SP, Brasil",
        "lat": "-23.19168415",
        "lng": "-45.86684892",
        "telefone": "39229689",
        "telefone2": " ",
        "email": null,
        "codigoCie": "96660"
    },
    {
        "id": 1967,
        "unidade": 1,
        "tipo": 13,
        "regiao": null,
        "nome": "VICENTE SIMIÃO LUZ",
        "endereco": "Rua Natálio Angelo Stabeli, 20 - Jardim São Leopoldo, São José dos Campos - SP, Brasil",
        "lat": "-23.24413366",
        "lng": "-45.82530799",
        "telefone": "39441481",
        "telefone2": " ",
        "email": null,
        "codigoCie": "66412"
    },
    {
        "id": 1968,
        "unidade": 1,
        "tipo": 13,
        "regiao": null,
        "nome": "DA VILA PAIVA",
        "endereco": "Rua Antonio Pedro Perotti, 375 - Vila Paiva, São José dos Campos - SP, Brasil",
        "lat": "-23.13889267",
        "lng": "-45.90768649",
        "telefone": "39228122",
        "telefone2": " ",
        "email": null,
        "codigoCie": "95936"
    },
    {
        "id": 1969,
        "unidade": 1,
        "tipo": 13,
        "regiao": null,
        "nome": "DA VILA SÃO BENTO",
        "endereco": "Rua Gurupi, 40 - Vila São Bento, São José dos Campos - SP, Brasil",
        "lat": "-23.22676587",
        "lng": "-45.87359597",
        "telefone": "39434271",
        "telefone2": " ",
        "email": null,
        "codigoCie": "92228"
    },